Tow Date,Vehicle Year,Vehicle Make,Vehicle Model,Notes,Location,City,lon,lat,Reason for tow,Trade Name,Merchant,Address,lot_lon,lot_lat,tow_dist
2023-10-03,2016.0,JEEP,CMP,REASON:  NOP  BACK TO TCL > DRIVE (301) 585-8808,11700 COLUMBIA PIKE,SILVER SPRING,-76.982369269,39.049615065,NOP,Drive Towing,Drive Towing,"14608 Old Gunpowder Rd, Laurel, MD 20707",-76.915644786956,39.088537803649,10731.6
2022-08-23,2023.0,KIA,SOUL,HANDICAP SPACE VIOLATION. HENRYS. 301-869-4800 TCL.,11225 OAK LEAF DR,SILVER SPRING,-76.99446,39.04085,PKG,Henry's Wrecker Service,Henry's Wrecker Service,"8321 Beechcraft Avenue, Gaithersburg, MD 20879",-77.169829435875,39.167950088781,30446.0
2023-02-19,2016.0,HOND,CIV,NOP // HENRYS 301 869 4800 // TCL,255 N WASHINGTON ST,ROCKVILLE,-77.15303,39.08709,NOP,Henry's Wrecker Service,Henry's Wrecker Service,"8321 Beechcraft Avenue, Gaithersburg, MD 20879",-77.169829435875,39.167950088781,11048.5
2022-07-05,2010.0,LEXS,R35,AUTH / 301-562-4020  NOP / TCL,370 E DIAMOND AVE,GAITHERSBURG,-77.19116,39.14214,NOP,Authorized Towing,Authorized Towing,"8011 Beechcraft Avenue, Gaithersburg, MD 20879",-77.16376838374,39.164402180848,5393.4
2022-10-26,2013.0,NISS,SEN,PRV // TCL  HENRY 301-927-00,2231 GLENALLAN AVE,SILVER SPRING,-77.04762,39.06224,PVT,Henry's Wrecker Service,Henry's Wrecker Service,"8321 Beechcraft Avenue, Gaithersburg, MD 20879",-77.169829435875,39.167950088781,17807.0
2023-05-24,2023.0,SUBA,OUT,MANAGEMENT REQ  HENRYS 301 869 4800,8616 2ND AVE,SILVER SPRING,-77.03434096499996,38.99734301900003,PKG,Henry's Wrecker Service,Henry's Wrecker Service,"8321 Beechcraft Avenue, Gaithersburg, MD 20879",-77.169829435875,39.167950088781,31203.2
2022-12-29,2016.0,NISS,ALT,NO PERMIT // HENRY'S // 301 869 4800 // TCL,7922 CORIANDER DR,GAITHERSBURG,-77.16547,39.15868,NOP,Henry's Wrecker Service,Henry's Wrecker Service,"8321 Beechcraft Avenue, Gaithersburg, MD 20879",-77.169829435875,39.167950088781,1461.8
2023-04-17,2017.0,TOYT,HGH,SPEEDY 301-588-1322 // TAGS AND PARKING PERMIT DONT MATCH // TCL,8715 PINEY BRANCH RD,SILVER SPRING,-76.99653,38.99897,,Speedy Towing,Speedy Towing,"15101 Southlawn Lane, Rockville, MD 20850",-77.133395924877,39.104344476742,21004.4
2022-05-14,2018.0,FORD,EXP,BIG TOW 301-424-4869 // NOP // TCL,1270 1ST ST,ROCKVILLE,-77.13462,39.09478,NOP,Big Tow,Big Tow,"375 Derwood Circle, Rockville, MD 20850",-77.152902935128,39.105768671141,2783.8
2022-04-29,2010.0,CHEV,IMP,NO PERMIT // AUTHORIZED 301-562-4020 // TCL,10914 GEORGIA AVE,SILVER SPRING,-77.0496,39.03531,NOP,Authorized Towing,Authorized Towing,"8011 Beechcraft Avenue, Gaithersburg, MD 20879",-77.16376838374,39.164402180848,20992.4
2023-07-05,2016.0,TOYT,TAC,PARKED IN RESERVED SPACE  AUBURN 301 977 2740  TCL,12861 SAGE TER,GERMANTOWN,-77.266119028,39.161224984,PKG,"Auburn Towing, Inc.","Auburn Towing, Inc.","375 Derwood Circle, Rockville, MD 20850",-77.152902935128,39.105768671141,13196.4
2023-10-13,2021.0,MAZD,CX5,FAILURE TO PAY FOR PARKING // SPEEDY 301-588-1322 // TCL// OWNER NTF,14175 CASTLE BLVD,SILVER SPRING,-76.939915838,39.087165382,PKG,Speedy Towing,Speedy Towing,"15101 Southlawn Lane, Rockville, MD 20850",-77.133395924877,39.104344476742,23358.4
2021-08-30,2006.0,SCIO,TC,EXPIRED TAGS// HENRYS 301-869-4800 TCL,20234 LEA POND PL,MONTGOMERY VILLAGE,-77.19093,39.18827,EXP,Henry's Wrecker Service,Henry's Wrecker Service,"8321 Beechcraft Avenue, Gaithersburg, MD 20879",-77.169829435875,39.167950088781,3678.6
2022-07-13,2006.0,HOND,ODY,"HENRYS, 3018694800  TCL  RSVRD SPACE",5510 ENGLISHMAN PL,ROCKVILLE,-77.11007,39.02754,PKG,Henry's Wrecker Service,Henry's Wrecker Service,"8321 Beechcraft Avenue, Gaithersburg, MD 20879",-77.169829435875,39.167950088781,22304.4
2022-02-14,2021.0,VOLV,XC40,UNAUTH PKG / NO PERMIT // HENRY'S 301 927 0007 // TCL,8621 GEORGIA AVE,SILVER SPRING,-77.02865,38.99647,NOP,Henry's Wrecker Service,Henry's Wrecker Service,"8321 Beechcraft Avenue, Gaithersburg, MD 20879",-77.169829435875,39.167950088781,31076.9
2022-04-27,2016.0,JEEP,CHK,EXP - HENRY'S- 301-869-4800- TCL,11215 GEORGIA AVE,SILVER SPRING,-77.05059,39.03977,EXP,Henry's Wrecker Service,Henry's Wrecker Service,"8321 Beechcraft Avenue, Gaithersburg, MD 20879",-77.169829435875,39.167950088781,20617.8
2023-04-27,2008.0,HOND,FIT,AUTH 3015624020  NOP   TCL,12633 GREY EAGLE CT,GERMANTOWN,-77.26196,39.16716,NOP,Authorized Towing,Authorized Towing,"8011 Beechcraft Avenue, Gaithersburg, MD 20879",-77.16376838374,39.164402180848,13229.8
2024-03-23,2015.0,AUDI,Q7,,100 1ST ST,ROCKVILLE,-77.139280968,39.079332994,NOP,Authorized Towing,Authorized Towing,"8011 Beechcraft Avenue, Gaithersburg, MD 20879",-77.16376838374,39.164402180848,12241.8
2021-07-01,2012.0,KIA,SED,NO PERMIT // SPEEDY // 301-588-1322 // TCL,140 PRADO LN,CLARKSBURG,-77.27273,39.22488,NOP,Speedy Towing,Speedy Towing,"15101 Southlawn Lane, Rockville, MD 20850",-77.133395924877,39.104344476742,21463.4
2021-08-29,1996.0,TOYT,CAM,PARKED IN FIRE LANE// HENRYS 301-927-0007//TCL,8508 16TH ST,SILVER SPRING,-77.03947,38.99782,PKG,Henry's Wrecker Service,Henry's Wrecker Service,"8321 Beechcraft Avenue, Gaithersburg, MD 20879",-77.169829435875,39.167950088781,31269.2
2023-03-27,2018.0,TOYT,SNA,DOUBLE PARKED - SPEEDY 3015881322 TCL   *VIN BLOCKED*,1001 ROCKVILLE PIKE,ROCKVILLE,-77.13343,39.07186,PKG,Speedy Towing,Speedy Towing,"15101 Southlawn Lane, Rockville, MD 20850",-77.133395924877,39.104344476742,4544.9
2022-03-07,,NISS,ALT,NO PERMIT  AUTHORIZED - 301-562-4020  BACK TO LOT,8021 GEORGIA AVE,SILVER SPRING,-77.02665,38.98763,NOP,Authorized Towing,Authorized Towing,"8011 Beechcraft Avenue, Gaithersburg, MD 20879",-77.16376838374,39.164402180848,31576.3
2023-02-03,2021.0,JEEP,CHK,NO PERMIT // HENRY'S 301-927-0007 // TCL,1220 BLAIR MILL RD,SILVER SPRING,-77.02917,38.98996,NOP,Henry's Wrecker Service,Henry's Wrecker Service,"8321 Beechcraft Avenue, Gaithersburg, MD 20879",-77.169829435875,39.167950088781,32072.3
2022-03-15,2019.0,HOND,ACC,"DIVERSIFIED, 3018818035  TCL  RSVD SPACE",5401 WESTBARD AVE,BETHESDA,-77.1056,38.96425,PVT,Diversified Recovery,Diversified Recovery,"12527 Parklawn Drive, Rockville, MD 20852",-77.117447177077,39.061616842557,13047.9
2022-04-22,2001.0,FORD,RNG,"AUBURN, 3019772747  TCL  NOP",18724 CURRY POWDER LN,GERMANTOWN,-77.26391,39.16234,NOP,"Auburn Towing, Inc.","Auburn Towing, Inc.","375 Derwood Circle, Rockville, MD 20850",-77.152902935128,39.105768671141,13028.9
2022-10-09,2017.0,TOYT,CAM,UNAUTH PKG / WALK OFF / HENRY'S // 301 927 0007 // TCL,909 THAYER AVE,SILVER SPRING,-77.02486,38.99304,PKG,Henry's Wrecker Service,Henry's Wrecker Service,"8321 Beechcraft Avenue, Gaithersburg, MD 20879",-77.169829435875,39.167950088781,31673.0
2023-02-16,2007.0,HOND,ODY,NOP // AUBURN // 301-977-2740 // TCL,301 WEST SIDE DR,GAITHERSBURG,-77.20378,39.12506,NOP,"Auburn Towing, Inc.","Auburn Towing, Inc.","375 Derwood Circle, Rockville, MD 20850",-77.152902935128,39.105768671141,8716.4
2023-11-29,2024.0,TOYT,CAM,SPEEDY 3015881322  NOP   TCL,14000 CASTLE BLVD,SILVER SPRING,-76.942182024,39.085869998,NOP,Speedy Towing,Speedy Towing,"15101 Southlawn Lane, Rockville, MD 20850",-77.133395924877,39.104344476742,23400.5
2022-04-24,2002.0,LEXS,GS300,RESERVED NO PERMIT // AUBURN 301-977-2740 // TCL,116 DUVALL LN,GAITHERSBURG,-77.20232,39.12875,,"Auburn Towing, Inc.","Auburn Towing, Inc.","375 Derwood Circle, Rockville, MD 20850",-77.152902935128,39.105768671141,6078.8
2024-05-04,2006.0,SCIO,TC,PRV - 2HR HARRIS TEETER PARKING  // DIVERSIFIED TOWING 301 881 8035 // TCL,4805 BATTERY LN,BETHESDA,-77.096540973,38.992794998,PVT,Diversified Recovery,Diversified Recovery,"12527 Parklawn Drive, Rockville, MD 20852",-77.117447177077,39.061616842557,8493.4
2022-05-02,2020.0,KIA,OPT,SPEEDY (301) 588-1322  NOP TCL,18211 CHALET DR,GERMANTOWN,-77.27466,39.15576,NOP,Speedy Towing,Speedy Towing,"15101 Southlawn Lane, Rockville, MD 20850",-77.133395924877,39.104344476742,17545.9
2023-01-07,2007.0,TOYT,RAV,UNAUTHORIZED PRKG  HENRYS!@301-869-4800//TCL,4 BRIAN CT,GAITHERSBURG,-77.18254,39.14489,PKG,Henry's Wrecker Service,Henry's Wrecker Service,"8321 Beechcraft Avenue, Gaithersburg, MD 20879",-77.169829435875,39.167950088781,4453.1
2022-05-08,2004.0,NISS,MAX,NOP // AUTHO // 301 562 400 // TCL,2399 JONES LN,SILVER SPRING,-77.04922,39.05365,NOP,Authorized Towing,Authorized Towing,"8011 Beechcraft Avenue, Gaithersburg, MD 20879",-77.16376838374,39.164402180848,17899.2
2024-05-23,2022.0,BUIC,INVISION,PARED IN HADICAPPED PARKING- NO HANDICAPPED PERMIT/ AUTHORIZED TOWING 301-562-4020/ LOT,4716 BRADLEY BLVD,CHEVY CHASE,-77.093037002,38.977441992,PKG,Authorized Towing,Authorized Towing,"8011 Beechcraft Avenue, Gaithersburg, MD 20879",-77.16376838374,39.164402180848,26899.0
2023-06-20,2018.0,FORD,EDG,RESERVED // DIVERSIFIED 301-881-8035 // TCL,3 POOKS HILL RD,BETHESDA,-77.104682986,39.014045009,NOP,Diversified Recovery,Diversified Recovery,"12527 Parklawn Drive, Rockville, MD 20852",-77.117447177077,39.061616842557,6550.7
2023-02-02,2018.0,HOND,CRV,EXP PERMIT// AUTHORIZED 301 562 4020 // TCL,13205 TWINBROOK PKWY,ROCKVILLE,-77.11239,39.07254,EXP,Authorized Towing,Authorized Towing,"8011 Beechcraft Avenue, Gaithersburg, MD 20879",-77.16376838374,39.164402180848,15058.5
2023-09-03,2008.0,KIA,SPT,NOP // DRIVE @ 301-585-8808 // TCL,475 SOUTHAMPTON DR,SILVER SPRING,-76.984190952,39.006229352,NOP,Drive Towing,Drive Towing,"14608 Old Gunpowder Rd, Laurel, MD 20707",-76.915644786956,39.088537803649,12472.5
2023-03-08,1998.0,TOYT,4RN,"UNREG // SILVER SPRING TOWING 301 589 7878 , ABAN AUTO  VRS 23-1061",17517 BUEHLER RD,OLNEY,-77.06186,39.14424,ABN,Speedy Towing,Speedy Towing,"15101 Southlawn Lane, Rockville, MD 20850",-77.133395924877,39.104344476742,11701.3
2023-11-17,2018.0,NISS,RGE,REASON: RESIDENT PARKED IN VISITOR//HENRYS/301-869-4800/TCL,30 ORCHARD DR,GAITHERSBURG,-77.249816981,39.118188982,PKG,Henry's Wrecker Service,Henry's Wrecker Service,"8321 Beechcraft Avenue, Gaithersburg, MD 20879",-77.169829435875,39.167950088781,10988.1
2023-11-29,2022.0,,,NO TRACT TRAIL PKG // BIG TOW 301-424-4869 // TCL,16571 S FREDERICK AVE,GAITHERSBURG,-77.183358966,39.12745899,PKG,Big Tow,Big Tow,"375 Derwood Circle, Rockville, MD 20850",-77.152902935128,39.105768671141,3948.7
2024-03-16,,HYUN,SFE,NO PERMIT  HENRYS - 301-869-4800  BACK TO LOT,5454 NICHOLSON LN,ROCKVILLE,-77.107691,39.044263991,NOP,Henry's Wrecker Service,Henry's Wrecker Service,"8321 Beechcraft Avenue, Gaithersburg, MD 20879",-77.169829435875,39.167950088781,20576.6
2022-08-30,2005.0,CADI,ESC,NO PERMIT  HENRYS@301-869-4800//TCL,11225 OAK LEAF DR,SILVER SPRING,-76.99446,39.04085,NOP,Henry's Wrecker Service,Henry's Wrecker Service,"8321 Beechcraft Avenue, Gaithersburg, MD 20879",-77.169829435875,39.167950088781,30446.0
2023-08-07,2007.0,LEXS,ES350,AUTHORIZED 301-562-4020 // NOP // TCL,728 CLOPPER RD,GAITHERSBURG,-77.227269997,39.144583009,NOP,Authorized Towing,Authorized Towing,"8011 Beechcraft Avenue, Gaithersburg, MD 20879",-77.16376838374,39.164402180848,8210.4
2024-05-10,2014.0,KIA,SOL,NOT PARKED IN MARKED SPACE // HENRY'S 301-869-4800 // TCL,1620 UNIVERSITY BLVD W,SILVER SPRING,-77.03956901,39.036345984,PKG,Henry's Wrecker Service,Henry's Wrecker Service,"8321 Beechcraft Avenue, Gaithersburg, MD 20879",-77.169829435875,39.167950088781,21912.4
2022-07-27,2022.0,TOYT,CAM,REASON- NOP  HENRYS// 301-869-4800  TOW TCL,19550 WATERS RD,GERMANTOWN,-77.27313,39.17653,NOP,Henry's Wrecker Service,Henry's Wrecker Service,"8321 Beechcraft Avenue, Gaithersburg, MD 20879",-77.169829435875,39.167950088781,12661.9
2023-10-14,2021.0,HYUN,TCN,NO VISITOR PERMIT // BIG TOW 301 424 4869 // TCL,19023 PARTRIDGE WOOD DR,GERMANTOWN,-77.258106012,39.166516983,NOP,Big Tow,Big Tow,"375 Derwood Circle, Rockville, MD 20850",-77.152902935128,39.105768671141,15918.0
2021-09-16,1998.0,CHEV,C15,FIRE // BIG TOW 301-424-4869 // TCL,1035 TRAVIS LN,GAITHERSBURG,-77.21693,39.16083,FIRE,Big Tow,Big Tow,"375 Derwood Circle, Rockville, MD 20850",-77.152902935128,39.105768671141,9160.8
2023-02-24,2019.0,ACUR,CSX,AUTHORIZE TOW 301-562-4020//INVALID PEMIRT//TCL,9727 MT PISGAH RD,SILVER SPRING,-76.97482,39.01713,NOP,Authorized Towing,Authorized Towing,"8011 Beechcraft Avenue, Gaithersburg, MD 20879",-77.16376838374,39.164402180848,32835.5
2024-02-03,2020.0,INFI,QX50,NOP HENRYS 301-927-0007,10401 MOTOR CITY DR,BETHESDA,-77.14294101,39.027237999,NOP,Henry's Wrecker Service,Henry's Wrecker Service,"8321 Beechcraft Avenue, Gaithersburg, MD 20879",-77.169829435875,39.167950088781,21578.0
2023-10-05,2012.0,BMW,550,INOPERABLE VEH // HENRYS 301-869-4800 /TCL,113 ELLINGTON BLVD,GAITHERSBURG,-77.205358025,39.115245007,PKG,Henry's Wrecker Service,Henry's Wrecker Service,"8321 Beechcraft Avenue, Gaithersburg, MD 20879",-77.169829435875,39.167950088781,11147.8
2022-12-07,2006.0,SCIO,XA,HENRYS TOWING 301-869-4800  BACK TO LOT  NO PERMIT,4949 BATTERY LN,BETHESDA,-77.10055,38.9925,NOP,Henry's Wrecker Service,Henry's Wrecker Service,"8321 Beechcraft Avenue, Gaithersburg, MD 20879",-77.169829435875,39.167950088781,26005.6
2023-11-02,2010.0,ACUR,MDX,NOP // HENRYS 301-927-0007 // TCL,1131 UNIVERSITY BLVD W,SILVER SPRING,-77.029221969,39.037589021,NOP,Henry's Wrecker Service,Henry's Wrecker Service,"8321 Beechcraft Avenue, Gaithersburg, MD 20879",-77.169829435875,39.167950088781,22844.4
2023-08-09,2008.0,TOYT,SQA,FIRE // HENRY'S TOWING 301 869 4800 // TCL,2900 SHEPPERTON TER,SILVER SPRING,-76.950966767,39.082935616,FIRE,Henry's Wrecker Service,Henry's Wrecker Service,"8321 Beechcraft Avenue, Gaithersburg, MD 20879",-77.169829435875,39.167950088781,29738.9
2023-10-03,2021.0,NISS,RGE,REASON: NOP  BACK TO TCL > HENRYS 301-869-4800,5230 TUCKERMAN LN,ROCKVILLE,-77.10184303,39.027490001,NOP,Henry's Wrecker Service,Henry's Wrecker Service,"8321 Beechcraft Avenue, Gaithersburg, MD 20879",-77.169829435875,39.167950088781,22834.6
2024-06-29,2004.0,TOYT,CAM,PKG // HENRYS 301-869-4800 // TCL,9450 HORIZON RUN RD,MONTGOMERY VILLAGE,-77.196419983,39.157485985,PKG,Henry's Wrecker Service,Henry's Wrecker Service,"8321 Beechcraft Avenue, Gaithersburg, MD 20879",-77.169829435875,39.167950088781,4916.5
2023-05-05,2014.0,HOND,ACC,UNAUTH PARKING / WALKOFF / NO OVERNIGHT // HENRY'S // 301-869-4800 // TCL,19294 MONTGOMERY VILLAGE AVE,MONTGOMERY VILLAGE,-77.20414197899998,39.17235900100008,PKG,Henry's Wrecker Service,Henry's Wrecker Service,"8321 Beechcraft Avenue, Gaithersburg, MD 20879",-77.169829435875,39.167950088781,3579.3
2021-12-08,2011.0,TOYT,PRI,PARKED IN NO PRKG ZONE  AUITHORIZED@301-562-4020//TCL,11225 OAK LEAF DR,SILVER SPRING,-76.99446,39.04085,PKG,Authorized Towing,Authorized Towing,"8011 Beechcraft Avenue, Gaithersburg, MD 20879",-77.16376838374,39.164402180848,29906.0
2022-07-19,2010.0,FORD,FUS,UNAUTHORIZED PRKG  HENRYS@301-869-4800//TCL,2511 GLENALLAN AVE,SILVER SPRING,-77.05187,39.06379,PKG,Henry's Wrecker Service,Henry's Wrecker Service,"8321 Beechcraft Avenue, Gaithersburg, MD 20879",-77.169829435875,39.167950088781,17401.0
2023-05-15,2022.0,MAZD,CX30,REASON : NOP  TOW CO: HENRYS   301-869-4800  TCL,APPLEDOWRE WAY / BRANDERMILL DR,GERMANTOWN,-77.23701961899997,39.18604609300007,NOP,Henry's Wrecker Service,Henry's Wrecker Service,"8321 Beechcraft Avenue, Gaithersburg, MD 20879",-77.169829435875,39.167950088781,10233.5
2023-03-26,2017.0,HYUN,SFE,FIRE LANE // SPEEDY TOWING  301-588-1322 / TCL,1001 ROCKVILLE PIKE,ROCKVILLE,-77.13343,39.07186,PKG,Speedy Towing,Speedy Towing,"15101 Southlawn Lane, Rockville, MD 20850",-77.133395924877,39.104344476742,4544.9
2023-05-31,2016.0,NISS,SEN,NO HANDICAP PERMIT // HENRY'S // 301-869-4800 // TCL,15704 MAHOGANY CIR,GAITHERSBURG,-77.20061,39.11403,PKG,Henry's Wrecker Service,Henry's Wrecker Service,"8321 Beechcraft Avenue, Gaithersburg, MD 20879",-77.169829435875,39.167950088781,11361.5
2021-08-24,2019.0,FORD,TCN,REASON : NO COMMERCIAL VEHS   TOW CO : HENRYS  301-869-4800  TCL,3800 BEL PRE RD,SILVER SPRING,-77.07511,39.09183,PKG,Henry's Wrecker Service,Henry's Wrecker Service,"8321 Beechcraft Avenue, Gaithersburg, MD 20879",-77.169829435875,39.167950088781,13543.4
2024-07-16,2013.0,TOYT,VNZ,INVALID PERMIT//NEG 10-60//7600 MAPLE AVE APT 1409 TP MD 20912,7600 MAPLE AVE,TAKOMA PARK,-77.008042995,38.983774981,PKG,Henry's Wrecker Service,Henry's Wrecker Service,"8321 Beechcraft Avenue, Gaithersburg, MD 20879",-77.169829435875,39.167950088781,34370.8
2022-08-26,2021.0,TOYT,TAC,NOP   HENRYS   301-869-4800  TCL,DOCENA DR / PIER POINT PL,MONTGOMERY VILLAGE,-77.19843,39.15955,NOP,Henry's Wrecker Service,Henry's Wrecker Service,"8321 Beechcraft Avenue, Gaithersburg, MD 20879",-77.169829435875,39.167950088781,3833.2
2023-10-17,2017.0,NISS,SE,EXP PERMIT // HENRYS // 3018694800 TCL,11225 OAK LEAF DR,SILVER SPRING,-76.994359036,39.040621006,NOP,Henry's Wrecker Service,Henry's Wrecker Service,"8321 Beechcraft Avenue, Gaithersburg, MD 20879",-77.169829435875,39.167950088781,30446.0
2022-06-15,2010.0,ACUR,MDX,NO PARKING PERMIT // SPEEDY // 301-588-1322 // TCL,2 MANCHESTER PL,SILVER SPRING,-77.00789,39.00158,PKG,Speedy Towing,Speedy Towing,"15101 Southlawn Lane, Rockville, MD 20850",-77.133395924877,39.104344476742,20518.5
2024-06-21,2003.0,HOND,ACC,REASON: NOP//BIG TOW//301-424-4869/TCL,19411 BRASSIE PL,MONTGOMERY VILLAGE,-77.201012008,39.17441898,NOP,Big Tow,Big Tow,"375 Derwood Circle, Rockville, MD 20850",-77.152902935128,39.105768671141,10834.7
2022-11-20,2018.0,HYUN,ELN,NO PERMIT// HENRYS 301 869 4800 // TCL,2425 BLUERIDGE AVE,SILVER SPRING,-77.05104,39.04304,NOP,Henry's Wrecker Service,Henry's Wrecker Service,"8321 Beechcraft Avenue, Gaithersburg, MD 20879",-77.169829435875,39.167950088781,19594.8
2022-06-29,2008.0,KENWORTH,T800,NO PERMIT // HENRY'S // 301 869 4800 // TCL,19134 MONTGOMERY VILLAGE AVE,MONTGOMERY VILLAGE,-77.20481,39.17076,NOP,Henry's Wrecker Service,Henry's Wrecker Service,"8321 Beechcraft Avenue, Gaithersburg, MD 20879",-77.169829435875,39.167950088781,3709.2
2022-12-04,2000.0,TOYT,CAM,NO PERMIT // AUTHORIZED 301-562-4020 // TCL,13901 CASTLE BLVD,SILVER SPRING,-76.94013,39.08349,NOP,Authorized Towing,Authorized Towing,"8011 Beechcraft Avenue, Gaithersburg, MD 20879",-77.16376838374,39.164402180848,30065.4
2022-02-02,2021.0,TESL,,UNREADABLE VIN  NOP  HENRY'S 301-927-0007  TCL,5025 BRADLEY BLVD,CHEVY CHASE,-77.09954,38.97795,NOP,Henry's Wrecker Service,Henry's Wrecker Service,"8321 Beechcraft Avenue, Gaithersburg, MD 20879",-77.169829435875,39.167950088781,27492.0
2022-07-23,,BUIC,,BUICK VUE  INVALID PERMIT  MILLERS TOWING - 301-602-0392  BACK TO LOT,9316 PINEY BRANCH RD,SILVER SPRING,-76.98586,39.00138,NOP,"Millers's Towing & Recovery, LLC","Millers's Towing & Recovery, LLC","18625 Mooney Drive, Gaithersburg, MD 20879",-77.165309428477,39.1625786911,34154.3
2023-02-06,2004.0,CHRY,TOW,"PKG - WALK OFF  HENRY'S - 301-927-0007, TCL",9440 GEORGIA AVE,SILVER SPRING,-77.04117,39.00974,PKG,Henry's Wrecker Service,Henry's Wrecker Service,"8321 Beechcraft Avenue, Gaithersburg, MD 20879",-77.169829435875,39.167950088781,29292.4
2022-06-14,1998.0,FORD,EC1,PRV - EXPIRED PERMIT // AUTHORIZED TOWING 301 562 4020 // TCL,14120 WEEPING WILLOW DR,SILVER SPRING,-77.06679,39.0894,PVT,Authorized Towing,Authorized Towing,"8011 Beechcraft Avenue, Gaithersburg, MD 20879",-77.16376838374,39.164402180848,13797.5
2022-05-13,2015.0,CHEV,EQX,PARKED IN HANDICAP SPACE NOP// HENRYS 301-8694800//TCL,9701 FIELDS RD,GAITHERSBURG,-77.19925,39.11477,PKG,Henry's Wrecker Service,Henry's Wrecker Service,"8321 Beechcraft Avenue, Gaithersburg, MD 20879",-77.169829435875,39.167950088781,11886.0
2022-04-07,,NISS,SE,NO PERMIT  AUTHORIZED - 301-562-4020  BACK TO LOT,19757 CRYSTAL ROCK DR,GERMANTOWN,-77.26139,39.17946,NOP,Authorized Towing,Authorized Towing,"8011 Beechcraft Avenue, Gaithersburg, MD 20879",-77.16376838374,39.164402180848,13107.9
2023-03-13,2012.0,MAZD,MZ3,SPEEDY 301-588-1322 // NOP // TCL,14103 FALL ACRE CT,SILVER SPRING,-77.05712,39.10717,NOP,Speedy Towing,Speedy Towing,"15101 Southlawn Lane, Rockville, MD 20850",-77.133395924877,39.104344476742,9898.7
2024-01-12,2006.0,DODG,R15,UNREGISTERED// GOING TO ABANDON AUTO  SILVER SPRING TOWING@ 301-589-7878,OSAGE ST / 10TH AVE,SILVER SPRING,-76.991302016,38.99479192,ABN,Speedy Towing,Speedy Towing,"15101 Southlawn Lane, Rockville, MD 20850",-77.133395924877,39.104344476742,21638.8
2023-07-01,2017.0,HOND,ACC,NOP // HENRYS 301-869-4800 // TCL,9912 BROOKRIDGE CT,MONTGOMERY VILLAGE,-77.20171701,39.188773995,NOP,Henry's Wrecker Service,Henry's Wrecker Service,"8321 Beechcraft Avenue, Gaithersburg, MD 20879",-77.169829435875,39.167950088781,5252.1
2022-02-21,2010.0,MAZD,MZ6,NO PERMIT DISPLAYED  HENRYS@301-869-4800//TCL,12940 KITCHEN HOUSE WAY,GERMANTOWN,-77.26714,39.15294,NOP,Henry's Wrecker Service,Henry's Wrecker Service,"8321 Beechcraft Avenue, Gaithersburg, MD 20879",-77.169829435875,39.167950088781,11338.1
2022-09-06,2009.0,NISS,VRS,"FIRE LANE// HENRY'S, 301-869-4800, TCL",18727 WINDING CREEK PL,GERMANTOWN,-77.24926,39.16239,FIRE,Henry's Wrecker Service,Henry's Wrecker Service,"8321 Beechcraft Avenue, Gaithersburg, MD 20879",-77.169829435875,39.167950088781,11027.4
2023-12-07,2010.0,VOLK,ROUTAN,PER MGMT // HENRYS // 301-869-4800 - TCL,802 PLEASANT DR,ROCKVILLE,-77.171919009,39.114003018,PKG,Henry's Wrecker Service,Henry's Wrecker Service,"8321 Beechcraft Avenue, Gaithersburg, MD 20879",-77.169829435875,39.167950088781,8163.2
2023-02-18,2022.0,KIA,FRT,NOP- AUTHROIZED- 301-562-4020- TCL,9737 MT PISGAH RD,SILVER SPRING,-76.97394,39.01707,NOP,Authorized Towing,Authorized Towing,"8011 Beechcraft Avenue, Gaithersburg, MD 20879",-77.16376838374,39.164402180848,32920.9
2023-11-12,2005.0,LEXS,300,,18642 CARRIAGE WALK CIR,GAITHERSBURG,-77.168007007,39.163318993,NOP,Henry's Wrecker Service,Henry's Wrecker Service,"8321 Beechcraft Avenue, Gaithersburg, MD 20879",-77.169829435875,39.167950088781,853.8
2022-05-20,2020.0,HYUN,VEN,AUTHORIZED TOWING 301-562-4020 TCL // NOP  HYUN VENUNE,805 QUINCE ORCHARD BLVD,GAITHERSBURG,-77.22856,39.14058,NOP,Authorized Towing,Authorized Towing,"8011 Beechcraft Avenue, Gaithersburg, MD 20879",-77.16376838374,39.164402180848,8508.0
2023-06-04,2014.0,TOYT,COA,HENRYS // 301-869-4800 // TCL // NO PERMIT,3411 GATESHEAD MANOR WAY,SILVER SPRING,-76.93709404099997,39.07810898500003,PVT,Henry's Wrecker Service,Henry's Wrecker Service,"8321 Beechcraft Avenue, Gaithersburg, MD 20879",-77.169829435875,39.167950088781,31051.2
2022-09-06,2015.0,TOYT,CAM,NO PERMIT // AUTHORIZED // 301 562 4020 // TCL,8021 GEORGIA AVE,SILVER SPRING,-77.02665,38.98763,NO PERMIT,Authorized Towing,Authorized Towing,"8011 Beechcraft Avenue, Gaithersburg, MD 20879",-77.16376838374,39.164402180848,31576.3
2022-09-22,2021.0,TESL,,TESLA MODEL 3  HENRYS. 301-869-4800. NO PERMIT. TCL,11011 WICKSHIRE WAY,ROCKVILLE,-77.10909,39.03837,NOP,Henry's Wrecker Service,Henry's Wrecker Service,"8321 Beechcraft Avenue, Gaithersburg, MD 20879",-77.169829435875,39.167950088781,20860.4
2023-10-06,2023.0,KIA,SPT,NO PERMIT // HENRY'S // 301 869 4800 // TCL,9825 DOCKSIDE TER,MONTGOMERY VILLAGE,-77.199012003,39.162330012,NOP,Henry's Wrecker Service,Henry's Wrecker Service,"8321 Beechcraft Avenue, Gaithersburg, MD 20879",-77.169829435875,39.167950088781,4953.9
2022-05-19,2021.0,SUBA,,NOP // BIG TOW @ 301-424-4869 // TCL,9807 BRASSIE WAY,MONTGOMERY VILLAGE,-77.20297,39.17558,NOP,Big Tow,Big Tow,"375 Derwood Circle, Rockville, MD 20850",-77.152902935128,39.105768671141,10819.4
2022-11-16,2000.0,MERZ,E320,NOP   AUTHORIZED 301-562-4020  TCL,20203 HALETHORPE LN,GERMANTOWN,-77.23406,39.18543,NOP,Authorized Towing,Authorized Towing,"8011 Beechcraft Avenue, Gaithersburg, MD 20879",-77.16376838374,39.164402180848,9480.8
2021-09-20,2015.0,CHEV,MAL,HANDICAP VIOLATION // HENRYS @ 301-869-4800 // TCL,2301 GLENALLAN AVE,SILVER SPRING,-77.04579,39.0614,PKG,Henry's Wrecker Service,Henry's Wrecker Service,"8321 Beechcraft Avenue, Gaithersburg, MD 20879",-77.169829435875,39.167950088781,17992.4
2024-03-22,2023.0,NISS,ALT,NOP / AUTHO / 301 562 4020 / TCL,12633 GREY EAGLE CT,GERMANTOWN,-77.261928112,39.167211659,NOP,Authorized Towing,Authorized Towing,"8011 Beechcraft Avenue, Gaithersburg, MD 20879",-77.16376838374,39.164402180848,13227.0
2022-09-20,2008.0,HOND,ACC,NOP   BIG TOW 301-424-4869  TCL,2511 MC VEARY CT,SILVER SPRING,-77.05187,39.10317,NOP,Big Tow,Big Tow,"375 Derwood Circle, Rockville, MD 20850",-77.152902935128,39.105768671141,11288.1
2024-05-18,2009.0,MAZD,323,PKG IN FIRE LANE // SPEEDY TOWING 301-588-1322 // TCL,2356 GLENMONT CIR,SILVER SPRING,-77.046956987,39.058868996,PKG,Speedy Towing,Speedy Towing,"15101 Southlawn Lane, Rockville, MD 20850",-77.133395924877,39.104344476742,12218.3
2024-03-15,2013.0,HYUN,ELN,"NOP// HENRY'S, 301-869-4800, TCL",3850 BEL PRE RD,SILVER SPRING,-77.07575796,39.090672996,NOP,Henry's Wrecker Service,Henry's Wrecker Service,"8321 Beechcraft Avenue, Gaithersburg, MD 20879",-77.169829435875,39.167950088781,13591.6
2023-03-16,2013.0,FORD,F25,NO OVERNIGHT PARKING AND NO COMMERCIAL VEHS / HENRYS 301-869-4800 / TCL,20918 FREDERICK RD,GERMANTOWN,-77.24516,39.19923,PKG,Henry's Wrecker Service,Henry's Wrecker Service,"8321 Beechcraft Avenue, Gaithersburg, MD 20879",-77.169829435875,39.167950088781,10389.0
2023-12-18,2022.0,CHEV,SUB,NO HANDICAP PERM // HENRYS @ 301-869-4800 // TCL,3200 SPARTAN RD,OLNEY,-77.06202899,39.15023501,NOP,Henry's Wrecker Service,Henry's Wrecker Service,"8321 Beechcraft Avenue, Gaithersburg, MD 20879",-77.169829435875,39.167950088781,14080.2
2022-10-26,2003.0,CHEV,IMP,NO PERMIT // HENRY'S // 301 869 4800 // TCL,1131 UNIVERSITY BLVD W,SILVER SPRING,-77.02957,39.03749,NOP,Henry's Wrecker Service,Henry's Wrecker Service,"8321 Beechcraft Avenue, Gaithersburg, MD 20879",-77.169829435875,39.167950088781,22829.5
2023-01-22,2012.0,TOYT,YAR,UNAUTH PKG IN RESERVE SPACE S 22   HENRYS 301- 869-4800   TCL,8830 PINEY BRANCH RD,SILVER SPRING,-76.99305,38.99974,PKG,Henry's Wrecker Service,Henry's Wrecker Service,"8321 Beechcraft Avenue, Gaithersburg, MD 20879",-77.169829435875,39.167950088781,34436.6
2024-05-11,2016.0,BMW,535,NOP // HENRYS 301-869-4800 // TCL,12001 OLD COLUMBIA PIKE,SILVER SPRING,-76.97487396,39.051868012,NOP,Henry's Wrecker Service,Henry's Wrecker Service,"8321 Beechcraft Avenue, Gaithersburg, MD 20879",-77.169829435875,39.167950088781,32921.4
2022-02-15,2017.0,HYUN,SON,BIG TOW 301-424-4869//NOP//TCL,18005 COTTAGE GARDEN DR,GERMANTOWN,-77.27522,39.15222,NOP,Big Tow,Big Tow,"375 Derwood Circle, Rockville, MD 20850",-77.152902935128,39.105768671141,14611.5
2023-01-10,2018.0,CHEV,EQX,DOUBLE PARKED BLOCKING CARS // DRIVE 301-585-8808 // TCL,475 SOUTHAMPTON DR,SILVER SPRING,-76.9842,39.00617,PKG,Drive Towing,Drive Towing,"14608 Old Gunpowder Rd, Laurel, MD 20707",-76.915644786956,39.088537803649,12472.8
2023-02-03,2019.0,HOND,FIT,NOP // HENRYS // 301-869-4800 // TCL,9964 ALTA SPRINGS WAY,ROCKVILLE,-77.20894,39.08872,NOP,Henry's Wrecker Service,Henry's Wrecker Service,"8321 Beechcraft Avenue, Gaithersburg, MD 20879",-77.169829435875,39.167950088781,12666.8
2024-07-21,2021.0,SUBA,FOR,NO PERMIT  HENRYS@301-869-4800//TCL,8000 EASTERN DR,SILVER SPRING,-77.031636963,38.989215004,NOP,Henry's Wrecker Service,Henry's Wrecker Service,"8321 Beechcraft Avenue, Gaithersburg, MD 20879",-77.169829435875,39.167950088781,31990.1
2024-02-17,2012.0,MERZ,S50,PRIVATE PROP // SPEEDY // 301-588-1322 // TCL,8109 MAYOR LN,SILVER SPRING,-77.025702995,38.991265008,PVT,Speedy Towing,Speedy Towing,"15101 Southlawn Lane, Rockville, MD 20850",-77.133395924877,39.104344476742,18102.5
2021-08-31,2015.0,INFI,QX70,AUBURN TOWING 301-977-2740 TCL // INVALID PERMIT,12046 CHASE CROSSING CIR,ROCKVILLE,-77.1223,39.05416,NOP,"Auburn Towing, Inc.","Auburn Towing, Inc.","375 Derwood Circle, Rockville, MD 20850",-77.152902935128,39.105768671141,8322.0
2023-02-25,2019.0,BMW,330,"NOP// SPEEDY, 301-588-1322, TCL",18318 STREAMSIDE DR,GAITHERSBURG,-77.16807,39.15576,NOP,Speedy Towing,Speedy Towing,"15101 Southlawn Lane, Rockville, MD 20850",-77.133395924877,39.104344476742,10007.7
2024-01-29,2019.0,FORD,TCN,MILLERS TOWING 301 602 0392 PRV PROP/HANDICAP VIOLATION TCL,1200 MC MAHON RD,SILVER SPRING,-77.043285965,39.033324015,PVT,"Millers's Towing & Recovery, LLC","Millers's Towing & Recovery, LLC","18625 Mooney Drive, Gaithersburg, MD 20879",-77.165309428477,39.1625786911,20878.4
2022-10-31,2013.0,TOYT,PRS,NOP // AUTHORIZED 301-562-4020 // TCL  OWNER NOTIF,22551 CABIN BRANCH AVE,CLARKSBURG,-77.28681,39.22318,NOP,Authorized Towing,Authorized Towing,"8011 Beechcraft Avenue, Gaithersburg, MD 20879",-77.16376838374,39.164402180848,17516.7
2023-02-24,1996.0,CHRY,LHS,EXPIRED PERMIT // HENRYS // 301-927-0007 // TCL,12631 GEORGIA AVE,SILVER SPRING,-77.05584,39.06394,NOP,Henry's Wrecker Service,Henry's Wrecker Service,"8321 Beechcraft Avenue, Gaithersburg, MD 20879",-77.169829435875,39.167950088781,16975.9
2024-05-03,2006.0,CHEV,EXP,NO PROPER REGISTRATION DISPLAYED  // AUTHORIZED TOWING //  301-562-4020 // TCL,14120 WEEPING WILLOW DR,SILVER SPRING,-77.067597004,39.088272,NOP,Authorized Towing,Authorized Towing,"8011 Beechcraft Avenue, Gaithersburg, MD 20879",-77.16376838374,39.164402180848,13941.1
2023-10-01,2017.0,HOND,ACC,HENRYS 301-869-4800,255 N WASHINGTON ST,ROCKVILLE,-77.152701987,39.087332012,NOP,Henry's Wrecker Service,Henry's Wrecker Service,"8321 Beechcraft Avenue, Gaithersburg, MD 20879",-77.169829435875,39.167950088781,11032.1
2022-11-24,2017.0,GMC,TRN,NOP // AUTHORIZED // 301-562-4020 // TCL,10914 GEORGIA AVE,SILVER SPRING,-77.0496,39.03531,NOP,Authorized Towing,Authorized Towing,"8011 Beechcraft Avenue, Gaithersburg, MD 20879",-77.16376838374,39.164402180848,20992.4
2023-04-18,2023.0,HOND,ACC,NOP // BIG TOW 301-424-4869 // TCL,15955 FREDERICK RD,DERWOOD,-77.16944,39.11761,NOP,Big Tow,Big Tow,"375 Derwood Circle, Rockville, MD 20850",-77.152902935128,39.105768671141,2814.0
2024-03-07,2023.0,NISS,KICK,REASON: NOP//AUTHORIZED/301-562-4020/TCL,8800 LANIER DR,SILVER SPRING,-77.048472016,38.999848999,NOP,Authorized Towing,Authorized Towing,"8011 Beechcraft Avenue, Gaithersburg, MD 20879",-77.16376838374,39.164402180848,30431.3
2021-07-23,2007.0,MERC,MONTEGO,FIRE LANE // SPEEDY @ 301-588-1322 // TCL,8711 GEORGIA AVE,SILVER SPRING,-77.03029,38.99804,FIRE,Speedy Towing,Speedy Towing,"15101 Southlawn Lane, Rockville, MD 20850",-77.133395924877,39.104344476742,17177.5
2022-02-09,2007.0,FORD,EDG,BIGTOW 3014244869  STORED VEH MGR REQUEST   TCL,12 TRAVIS CT,GAITHERSBURG,-77.21532,39.16136,PKG,Big Tow,Big Tow,"375 Derwood Circle, Rockville, MD 20850",-77.152902935128,39.105768671141,9125.6
2023-11-19,2016.0,NISS,PTH,NOP // SPEEDY 301-588-1322 // TCL,2501 LITTLE VISTA TER,OLNEY,-77.052338001,39.161048,NOP,Speedy Towing,Speedy Towing,"15101 Southlawn Lane, Rockville, MD 20850",-77.133395924877,39.104344476742,14036.6
2022-05-29,2018.0,KIA,FRT,,GRAMERCY BLVD / COLUMBUS AVE,DERWOOD,-77.16548,39.12383,NOP,Henry's Wrecker Service,Henry's Wrecker Service,"8321 Beechcraft Avenue, Gaithersburg, MD 20879",-77.169829435875,39.167950088781,6822.7
2023-09-13,2015.0,CHEV,EQX,HENRY'S TOWING 301-869-4800 TO TCL // ABANDONED PER MANGEMENT,3720 LAMBERTON SQUARE RD,SILVER SPRING,-76.93219398,39.077022019,ABN,Henry's Wrecker Service,Henry's Wrecker Service,"8321 Beechcraft Avenue, Gaithersburg, MD 20879",-77.169829435875,39.167950088781,31686.9
2022-07-20,2019.0,ACUR,TL,HENRYS 301-869-4800 TCL // NOP DISPLAYED   CANT SEE VIN,11225 OAK LEAF DR,SILVER SPRING,-76.99446,39.04085,NOP,Henry's Wrecker Service,Henry's Wrecker Service,"8321 Beechcraft Avenue, Gaithersburg, MD 20879",-77.169829435875,39.167950088781,30446.0
2022-12-27,2022.0,TOYT,PRI,BIG TOW 301-424-4869  BACK TO LOT  FIRE LANE,BLACK SADDLE LN / CRYSTAL ROCK DR,GERMANTOWN,-77.26318,39.17729,FIRE,Big Tow,Big Tow,"375 Derwood Circle, Rockville, MD 20850",-77.152902935128,39.105768671141,15272.2
2024-07-12,2013.0,HOND,CIV,HENRYS // TCL // 301-869-4800 // NOP,5901 MONTROSE RD,ROCKVILLE,-77.118849995,39.053527,NOP,Henry's Wrecker Service,Henry's Wrecker Service,"8321 Beechcraft Avenue, Gaithersburg, MD 20879",-77.169829435875,39.167950088781,19105.9
2023-07-19,,INFI,G37,EXPIRED PERMIT  AUTHORIZED - 301-562-4020  BACK TO LOT,14120 WEEPING WILLOW DR,SILVER SPRING,-77.06759700399994,39.08827200000008,NOP,Authorized Towing,Authorized Towing,"8011 Beechcraft Avenue, Gaithersburg, MD 20879",-77.16376838374,39.164402180848,13941.1
2021-12-10,2018.0,VOLK,PAS,HENRYS 301-869-4800  NOP   TCL,906 SILVER SPRING AVE,SILVER SPRING,-77.02465,38.99166,NOP,Henry's Wrecker Service,Henry's Wrecker Service,"8321 Beechcraft Avenue, Gaithersburg, MD 20879",-77.169829435875,39.167950088781,31837.9
2022-04-05,2018.0,TOYT,RAV,NOP   AUTHORIZED 301-562-4020   TCL,12633 GREY EAGLE CT,GERMANTOWN,-77.26196,39.16716,NOP,Authorized Towing,Authorized Towing,"8011 Beechcraft Avenue, Gaithersburg, MD 20879",-77.16376838374,39.164402180848,13229.8
2024-02-07,2022.0,TOYT,COA,NO PERMIT // HENRY'S 301-869-4800 // TCL,19520 WATERS RD,GERMANTOWN,-77.273961975,39.175920011,NOP,Henry's Wrecker Service,Henry's Wrecker Service,"8321 Beechcraft Avenue, Gaithersburg, MD 20879",-77.169829435875,39.167950088781,12779.8
2022-06-01,2003.0,TOYT,COA,HENRYS 301-869-4800 // FIRE LANE/NOP (CALLED IN BY PROP MGMT) // TCL,9923 LAKE LANDING RD,MONTGOMERY VILLAGE,-77.20615,39.16547,FIRE,Henry's Wrecker Service,Henry's Wrecker Service,"8321 Beechcraft Avenue, Gaithersburg, MD 20879",-77.169829435875,39.167950088781,4287.7
2023-01-22,2022.0,FORD,ECO,NOP HENRYS 3018694800 TCL,15250 SIESTA KEY WAY,ROCKVILLE,-77.19426,39.10599,NOP,Henry's Wrecker Service,Henry's Wrecker Service,"8321 Beechcraft Avenue, Gaithersburg, MD 20879",-77.169829435875,39.167950088781,9932.8
2023-08-16,,JEEP,GCH,NO PERMIT  HENRYS - 301-869-4800  BACK TO LOT,9210 WIGHTMAN RD,MONTGOMERY VILLAGE,-77.189426039,39.188001016,NOP,Henry's Wrecker Service,Henry's Wrecker Service,"8321 Beechcraft Avenue, Gaithersburg, MD 20879",-77.169829435875,39.167950088781,3404.2
2023-11-14,2015.0,TOYT,SNA,MILLERS // (301) 602-0392// WALK OFF // TCL,22 N SUMMIT AVE,GAITHERSBURG,-77.193446,39.142887014,PKG,"Millers's Towing & Recovery, LLC","Millers's Towing & Recovery, LLC","18625 Mooney Drive, Gaithersburg, MD 20879",-77.165309428477,39.1625786911,5661.4
2024-05-13,2017.0,LEXS,,HENRYS 301-869-4800  MANAGEMENT REQ   TCL,9700 TRAVILLE GATEWAY DR,ROCKVILLE,-77.204458982,39.091412993,PKG,Henry's Wrecker Service,Henry's Wrecker Service,"8321 Beechcraft Avenue, Gaithersburg, MD 20879",-77.169829435875,39.167950088781,11880.6
2023-06-06,2010.0,TOYT,CAM,NOP AUTHORIZED 301-562-4020 TCL,20520 STRATH HAVEN DR,MONTGOMERY VILLAGE,-77.193166966,39.193496988,NOP,Authorized Towing,Authorized Towing,"8011 Beechcraft Avenue, Gaithersburg, MD 20879",-77.16376838374,39.164402180848,4809.6
2021-09-12,2011.0,TOYT,CAM,RESERVED PARKING // HENRYS // 301-869-4800 // TCL,20315 GENTLE WAY,MONTGOMERY VILLAGE,-77.19304,39.18961,,Henry's Wrecker Service,Henry's Wrecker Service,"8321 Beechcraft Avenue, Gaithersburg, MD 20879",-77.169829435875,39.167950088781,3969.9
2023-01-04,2019.0,HOND,HRV,REASON: NOP  TOW CO : BIG TOW  301-424-4869  TCL,414 GIRARD ST,GAITHERSBURG,-77.18504,39.14671,NOP,Big Tow,Big Tow,"375 Derwood Circle, Rockville, MD 20850",-77.152902935128,39.105768671141,6545.1
2024-03-02,2015.0,CHEV,MAL,NOP // AUTHORIZED TOWING 3015624020 // TCL,19757 CRYSTAL ROCK DR,GERMANTOWN,-77.261135987,39.179386012,NOP,Authorized Towing,Authorized Towing,"8011 Beechcraft Avenue, Gaithersburg, MD 20879",-77.16376838374,39.164402180848,13230.6
2022-12-20,2005.0,HOND,CRV,NOP HENRYS 3018694800 TCL,18620 POPLAR GLEN CT,BOYDS,-77.28615,39.16353,NOP,Henry's Wrecker Service,Henry's Wrecker Service,"8321 Beechcraft Avenue, Gaithersburg, MD 20879",-77.169829435875,39.167950088781,12995.8
2022-06-05,2018.0,DODG,CHA,PARKED IN HANDICAP WITHOUT HANDICAP PERMIT // AUTHORIZED 301-562-4020 // TCL    OWNER NOTIF,370 E DIAMOND AVE,GAITHERSBURG,-77.19116,39.14214,PKG,Authorized Towing,Authorized Towing,"8011 Beechcraft Avenue, Gaithersburg, MD 20879",-77.16376838374,39.164402180848,5393.4
2024-03-31,2015.0,CHEV,EXP,VIN COVERED UP WHEN ASKED  SPEEDY TOW 301-588-1322//NOP//TCL,8615 FENTON ST,SILVER SPRING,-77.027409969,38.998060007,NOP,Speedy Towing,Speedy Towing,"15101 Southlawn Lane, Rockville, MD 20850",-77.133395924877,39.104344476742,17490.8
2023-05-17,2017.0,LINC,MKZ,NOP  AUTHORIZED 301-562-4020  TCL,1699 YALE PL,ROCKVILLE,-77.16187,39.10265,NOP,Authorized Towing,Authorized Towing,"8011 Beechcraft Avenue, Gaithersburg, MD 20879",-77.16376838374,39.164402180848,9281.5
2023-11-24,2019.0,TOYT,SNA,MILLERS TOWING 301 602 0293 HANDICAP VIOLATION TCL,1200 MC MAHON RD,SILVER SPRING,-77.043285965,39.033324015,PKG,"Millers's Towing & Recovery, LLC","Millers's Towing & Recovery, LLC","18625 Mooney Drive, Gaithersburg, MD 20879",-77.165309428477,39.1625786911,20878.4
2022-11-17,2013.0,TOYT,AVA,EXCEEDED 2HR LIMIT // HENRYS 301.869.4800 TCL,833 WAYNE AVE,SILVER SPRING,-77.02376,38.99574,PKG,Henry's Wrecker Service,Henry's Wrecker Service,"8321 Beechcraft Avenue, Gaithersburg, MD 20879",-77.169829435875,39.167950088781,31639.0
2023-11-10,2022.0,SUBA,OUT,PARKED WITH NO PERMIT DISPLAYED // HENRYS 301 869 4800 // TCL,15250 SIESTA KEY WAY,ROCKVILLE,-77.195198991,39.106037989,NOP,Henry's Wrecker Service,Henry's Wrecker Service,"8321 Beechcraft Avenue, Gaithersburg, MD 20879",-77.169829435875,39.167950088781,9961.8
2023-09-17,2022.0,TOTL,CAM,PKG IN RESERVED SPACE W/O PERMIT  AUTHORIZED 301 562 4020  TCL,13831 CASTLE BLVD,SILVER SPRING,-76.942033999,39.082356011,PKG,Authorized Towing,Authorized Towing,"8011 Beechcraft Avenue, Gaithersburg, MD 20879",-77.16376838374,39.164402180848,29860.6
2024-04-03,2023.0,AUDI,A3,HENRYS 301-869-4800 NOP,5901 MONTROSE RD,ROCKVILLE,-77.118849995,39.053527,NOP,Henry's Wrecker Service,Henry's Wrecker Service,"8321 Beechcraft Avenue, Gaithersburg, MD 20879",-77.169829435875,39.167950088781,19105.9
2023-08-12,2009.0,TOYT,CAM,NO PERMIT // BIG TOW // 301 424 4869 // TCL,10010 STEDWICK RD,MONTGOMERY VILLAGE,-77.205269009,39.169174004,NOP,Big Tow,Big Tow,"375 Derwood Circle, Rockville, MD 20850",-77.152902935128,39.105768671141,9862.0
2021-10-25,2008.0,FORD,FOC,WALK OFF (PRV) // HENRYS // 301 869 4800 // TCL,46 BUREAU DR,GAITHERSBURG,-77.21785,39.14396,PVT,Henry's Wrecker Service,Henry's Wrecker Service,"8321 Beechcraft Avenue, Gaithersburg, MD 20879",-77.169829435875,39.167950088781,6847.2
2023-06-14,2011.0,TOYT,COA,NOP // HENRYS @ 301-869-4800 // TCL,DOCENA DR / PIER POINT PL,MONTGOMERY VILLAGE,-77.19829701299994,39.16050511100008,NOP,Henry's Wrecker Service,Henry's Wrecker Service,"8321 Beechcraft Avenue, Gaithersburg, MD 20879",-77.169829435875,39.167950088781,3939.7
2023-02-07,2013.0,HOND,CIV,FIRE LANE // SPEEDY // 301 588 1322 // TCL,8715 PINEY BRANCH RD,SILVER SPRING,-76.99653,38.99897,FIRE,Speedy Towing,Speedy Towing,"15101 Southlawn Lane, Rockville, MD 20850",-77.133395924877,39.104344476742,21004.4
2022-06-28,2020.0,DODG,JNY,NO PERMIT // AUTHORIZED 301-562-4020 // TCL,700 CLOPPER RD,GAITHERSBURG,-77.22388,39.1437,NOP,Authorized Towing,Authorized Towing,"8011 Beechcraft Avenue, Gaithersburg, MD 20879",-77.16376838374,39.164402180848,7867.2
2024-03-09,2023.0,TESL,,MODEL 3  NOP  HENRY'S 301-869-4800  TCL,1215 EAST WEST HWY,SILVER SPRING,-77.02926698,38.991209981,NOP,Henry's Wrecker Service,Henry's Wrecker Service,"8321 Beechcraft Avenue, Gaithersburg, MD 20879",-77.169829435875,39.167950088781,31993.9
2024-02-22,,FORD,FUS,NOT IN MARKED PARKING SPACE  HENRYS - 301-869-4800  BACK TO LOT,9910 KILLARNEY LN,GAITHERSBURG,-77.207127026,39.133423008,PVT,Henry's Wrecker Service,Henry's Wrecker Service,"8321 Beechcraft Avenue, Gaithersburg, MD 20879",-77.169829435875,39.167950088781,8054.0
2023-04-08,2009.0,SUBA,IMP,NOP / AUTHO / 301 562 4020 / TCL,9727 MT PISGAH RD,SILVER SPRING,-76.97482,39.01713,NOP,Authorized Towing,Authorized Towing,"8011 Beechcraft Avenue, Gaithersburg, MD 20879",-77.16376838374,39.164402180848,32835.5
2022-11-18,2018.0,KIA,SOU,REASON: EXPIRED TAGS / NOP  BACK TO TCL> DRIVE ((301) 585-8808,11700 OLD COLUMBIA PIKE,SILVER SPRING,-76.98028,39.04928,EXP,Drive Towing,Drive Towing,"14608 Old Gunpowder Rd, Laurel, MD 20707",-76.915644786956,39.088537803649,11126.4
2021-09-04,2022.0,HOND,CIV,,13609 COLGATE WAY,SILVER SPRING,-76.93269,39.0789,PKG,Henry's Wrecker Service,Henry's Wrecker Service,"8321 Beechcraft Avenue, Gaithersburg, MD 20879",-77.169829435875,39.167950088781,31734.2
2023-06-08,2018.0,ACUR,ILX,REASON: NOP//DRIVE/301-585-8808/TCL,11700 OLD COLUMBIA PIKE,SILVER SPRING,-76.98056502099996,39.04946601000006,NOP,Drive Towing,Drive Towing,"14608 Old Gunpowder Rd, Laurel, MD 20707",-76.915644786956,39.088537803649,10880.2
2022-08-08,2006.0,CHEV,CBT,NOP. BIG TOW. 301-424-4869. TCL.,89 TRAVIS CT,GAITHERSBURG,-77.21553,39.16166,NOP,Big Tow,Big Tow,"375 Derwood Circle, Rockville, MD 20850",-77.152902935128,39.105768671141,9190.9
2023-11-30,,FORD,FIE,NO PERMIT  HENRYS - 301-869-4800  BACK TO LOT,8200 SPICEBERRY LN,GAITHERSBURG,-77.163474996,39.151554992,NOP,Henry's Wrecker Service,Henry's Wrecker Service,"8321 Beechcraft Avenue, Gaithersburg, MD 20879",-77.169829435875,39.167950088781,2672.9
2022-09-25,2017.0,HOND,CIV,"MILLERS TOWING (301) 602-0392, NOP, BACK TO  THE LOT // 2017 BLK HOND CIV, MD 7DT4543",29 GOODPORT LN,GAITHERSBURG,-77.23635,39.15192,NOP,"Millers's Towing & Recovery, LLC","Millers's Towing & Recovery, LLC","18625 Mooney Drive, Gaithersburg, MD 20879",-77.165309428477,39.1625786911,9549.8
2024-05-10,2023.0,MAZD,CX30,EXP PERMIT // AUTHORIZED // 301 562 4020 // TCL,10914 GEORGIA AVE,SILVER SPRING,-77.05005301,39.03531698,NOP,Authorized Towing,Authorized Towing,"8011 Beechcraft Avenue, Gaithersburg, MD 20879",-77.16376838374,39.164402180848,21005.0
2023-03-11,2016.0,JEEP,CHK,VIN BLOCKED   NOP   HENRYS 301-869-4800  TCL,5079 BRADLEY BLVD,CHEVY CHASE,-77.10038,38.97804,NOP,Henry's Wrecker Service,Henry's Wrecker Service,"8321 Beechcraft Avenue, Gaithersburg, MD 20879",-77.169829435875,39.167950088781,27443.4
2022-10-21,2016.0,HYUN,SFE,HENRYS.301-869-4800.NO PERMIT.TCL,15251 SIESTA KEY WAY,ROCKVILLE,-77.19424,39.10602,NO PERMIT,Henry's Wrecker Service,Henry's Wrecker Service,"8321 Beechcraft Avenue, Gaithersburg, MD 20879",-77.169829435875,39.167950088781,9929.1
2022-06-25,2017.0,CHEV,EQX,NO PERMIT / HENRY'S TOW LOT (301) 869-4800,9916 WALKER HOUSE RD,MONTGOMERY VILLAGE,-77.20639,39.16285,NOP,Henry's Wrecker Service,Henry's Wrecker Service,"8321 Beechcraft Avenue, Gaithersburg, MD 20879",-77.169829435875,39.167950088781,4672.3
2021-09-13,2006.0,FORD,ECP,"NOP// HENRY'S, 301-869-4800, TCL",19432 BREEZEDALE LN,GERMANTOWN,-77.24267,39.1749,NOP,Henry's Wrecker Service,Henry's Wrecker Service,"8321 Beechcraft Avenue, Gaithersburg, MD 20879",-77.169829435875,39.167950088781,9335.6
2022-06-03,2009.0,VOLV,S40,AUTHORIZED 301-562-4020  EXP / TCL,3506 PEAR TREE CT,SILVER SPRING,-77.07055,39.08954,EXP,Authorized Towing,Authorized Towing,"8011 Beechcraft Avenue, Gaithersburg, MD 20879",-77.16376838374,39.164402180848,13572.8
2021-12-16,2020.0,TOYT,COA,NOP // AUTHORIZED 301.562.4020 TCL,923 CLOPPER RD,GAITHERSBURG,-77.22733,39.14548,NOP,Authorized Towing,Authorized Towing,"8011 Beechcraft Avenue, Gaithersburg, MD 20879",-77.16376838374,39.164402180848,8225.1
2022-05-02,2017.0,CHEV,CRZ,HENRY'S TOWING 301-927-0007  NOP  TCL,1131 UNIVERSITY BLVD W,SILVER SPRING,-77.02957,39.03749,NOP,Henry's Wrecker Service,Henry's Wrecker Service,"8321 Beechcraft Avenue, Gaithersburg, MD 20879",-77.169829435875,39.167950088781,22829.5
2024-04-06,2016.0,TOYT,CAM,FIRE LANE // HENRYS @ 301-927-0007 // TCL,1215 EAST WEST HWY,SILVER SPRING,-77.02926698,38.991209981,PKG,Henry's Wrecker Service,Henry's Wrecker Service,"8321 Beechcraft Avenue, Gaithersburg, MD 20879",-77.169829435875,39.167950088781,31993.9
2022-03-27,2017.0,KIA,,FIRE // HENRYS // 301 869 4800 // TCL,25 LEE AVE,TAKOMA PARK,-77.00599,38.97948,NOP,Henry's Wrecker Service,Henry's Wrecker Service,"8321 Beechcraft Avenue, Gaithersburg, MD 20879",-77.169829435875,39.167950088781,34384.2
2023-08-30,2023.0,KIA,RIO,REASON: NOP//SPEEDY/301-588-1322/TCL,8715 PINEY BRANCH RD,SILVER SPRING,-76.997506021,38.998620002,NOP,Speedy Towing,Speedy Towing,"15101 Southlawn Lane, Rockville, MD 20850",-77.133395924877,39.104344476742,21019.6
2022-07-06,2016.0,NISS,ALT,NOP // AUTHORIZED 301 562 4020 // TCL,19757 CRYSTAL ROCK DR,GERMANTOWN,-77.26139,39.17946,NOP,Authorized Towing,Authorized Towing,"8011 Beechcraft Avenue, Gaithersburg, MD 20879",-77.16376838374,39.164402180848,13107.9
2021-12-17,2020.0,NISS,ALT,NOP - BIG TOW 3014244869 TCL,10026 STEDWICK RD,MONTGOMERY VILLAGE,-77.20624,39.16954,NOP,Big Tow,Big Tow,"375 Derwood Circle, Rockville, MD 20850",-77.152902935128,39.105768671141,10098.5
2023-08-06,2023.0,BMW,X5,NOP // AUTHORIZED 301 562 4020 //TCL,11901 PARKLAWN PL,ROCKVILLE,-77.101582017,39.050733018,NOP,Authorized Towing,Authorized Towing,"8011 Beechcraft Avenue, Gaithersburg, MD 20879",-77.16376838374,39.164402180848,18454.0
2023-08-14,2009.0,TOYT,PRI,REASON: NOP//HENRYS/301-869-4800/TCL,18914 SMOOTHSTONE WAY,MONTGOMERY VILLAGE,-77.208013999,39.168306016,NOP,Henry's Wrecker Service,Henry's Wrecker Service,"8321 Beechcraft Avenue, Gaithersburg, MD 20879",-77.169829435875,39.167950088781,4172.5
2022-02-12,2011.0,DODG,AVN,EXPIRED TAG // HENRY'S 301-927-0007 // TCL,8502 16TH ST,SILVER SPRING,-77.03903,38.99803,EXP,Henry's Wrecker Service,Henry's Wrecker Service,"8321 Beechcraft Avenue, Gaithersburg, MD 20879",-77.169829435875,39.167950088781,31253.9
2021-08-23,2020.0,FORD,ECO,,404 CHRISTOPHER AVE,GAITHERSBURG,-77.21195,39.15889,NOP,Authorized Towing,Authorized Towing,"8011 Beechcraft Avenue, Gaithersburg, MD 20879",-77.16376838374,39.164402180848,6199.0
2023-05-12,2015.0,NISS,SEN,MILLERS 301-602-0392 // HANDICAP PKG // TCL,2400 MC MAHON RD,SILVER SPRING,-77.03999397199993,39.03370400800003,PKG,"Millers's Towing & Recovery, LLC","Millers's Towing & Recovery, LLC","18625 Mooney Drive, Gaithersburg, MD 20879",-77.165309428477,39.1625786911,21230.1
2023-03-16,2017.0,FORD,F150,HENRYS 301-869-4800   IMPEDING TRAFF   TCL,22421 EGRET ALY,CLARKSBURG,-77.28731,39.22276,PKG,Henry's Wrecker Service,Henry's Wrecker Service,"8321 Beechcraft Avenue, Gaithersburg, MD 20879",-77.169829435875,39.167950088781,14161.4
2023-08-18,1998.0,MERZ,ML3,REASON FOR TOW: PARKED IN RESERVED SPACE  TOW CO: HENRYS 301 927 0007 .....GOING TO TCL,1131 UNIVERSITY BLVD W,SILVER SPRING,-77.029221969,39.037589021,PKG,Henry's Wrecker Service,Henry's Wrecker Service,"8321 Beechcraft Avenue, Gaithersburg, MD 20879",-77.169829435875,39.167950088781,22844.4
2023-07-18,2004.0,HOND,PLT,PARKED IN NO PARKING ZONE // AUTHORIZED 301 562 4020 //TCL    OWNER NOTIF,19581 TRANSHIRE RD,MONTGOMERY VILLAGE,-77.198513028,39.175179009,PKG,Authorized Towing,Authorized Towing,"8011 Beechcraft Avenue, Gaithersburg, MD 20879",-77.16376838374,39.164402180848,4248.8
2023-08-07,2018.0,PORS,CYN,NOP // HENRY'S 301-927-0007 // TCL,11215 GEORGIA AVE,SILVER SPRING,-77.04999199,39.03921599,NOP,Henry's Wrecker Service,Henry's Wrecker Service,"8321 Beechcraft Avenue, Gaithersburg, MD 20879",-77.169829435875,39.167950088781,20778.9
2023-05-30,2014.0,CHEV,SONIC,EXP PERMIT   HENRYS 301-927-0007  TCL,2425 BLUERIDGE AVE,SILVER SPRING,-77.05140702299997,39.04325501900007,EXP,Henry's Wrecker Service,Henry's Wrecker Service,"8321 Beechcraft Avenue, Gaithersburg, MD 20879",-77.169829435875,39.167950088781,19561.9
2023-08-19,,CHRY,300,INVALID/OLD PERMIT  HENRYS - 301-869-4800  BACK TO LOT,9975 RIDGELINE DR,MONTGOMERY VILLAGE,-77.20425899,39.175873994,NOP,Henry's Wrecker Service,Henry's Wrecker Service,"8321 Beechcraft Avenue, Gaithersburg, MD 20879",-77.169829435875,39.167950088781,3816.9
2024-05-04,2016.0,HOND,CIV,"HENRYS  301 869 4800, PKG, BACK TO THE LOT //",52 COHOSH ALY,CLARKSBURG,-77.290321019,39.226098987,PKG,Henry's Wrecker Service,Henry's Wrecker Service,"8321 Beechcraft Avenue, Gaithersburg, MD 20879",-77.169829435875,39.167950088781,16691.3
2024-07-26,2007.0,CHEV,EXP,EXP // SPEEDY TOWING // 301-588-1322 // TCL,475 SOUTHAMPTON DR,SILVER SPRING,-76.984879767,39.006342636,EXP,Speedy Towing,Speedy Towing,"15101 Southlawn Lane, Rockville, MD 20850",-77.133395924877,39.104344476742,23674.4
2023-10-18,2015.0,CHEV,MAL,NO PARKING ZONE // AUTHORIZED 301-562-4020 // TCL,100 1ST ST,ROCKVILLE,-77.139280968,39.079332994,PKG,Authorized Towing,Authorized Towing,"8011 Beechcraft Avenue, Gaithersburg, MD 20879",-77.16376838374,39.164402180848,12241.8
2023-10-06,2019.0,SUBA,,EXP VISITOR PASS// AUTHORIZED 301-562-4020 // TCL,9901 GABLE RIDGE TER,ROCKVILLE,-77.205089972,39.108788007,EXP,Authorized Towing,Authorized Towing,"8011 Beechcraft Avenue, Gaithersburg, MD 20879",-77.16376838374,39.164402180848,11441.4
2023-05-16,2020.0,HYUN,ELN,AUTHORIZED 301-562-4020 // EXP PERMIT // TCL,14120 WEEPING WILLOW DR,SILVER SPRING,-77.06759700399994,39.08827200000008,NOP,Authorized Towing,Authorized Towing,"8011 Beechcraft Avenue, Gaithersburg, MD 20879",-77.16376838374,39.164402180848,13941.1
2024-06-15,2015.0,VOLV,S60,EXPIRED PERMIT  HENRYS 301-869-4800 TCL,12430 PARK POTOMAC AVE,POTOMAC,-77.15810798,39.059533011,EXP,Henry's Wrecker Service,Henry's Wrecker Service,"8321 Beechcraft Avenue, Gaithersburg, MD 20879",-77.169829435875,39.167950088781,17176.9
2022-06-04,2004.0,TOYT,COA,"HENRYS (301) 869-4800, NOP, BACK TO THE LOT // 2004 RED TOYT COA, MD 7EX4732 //",18802 WALKERS CHOICE RD,MONTGOMERY VILLAGE,-77.20488,39.16418,NOP,Henry's Wrecker Service,Henry's Wrecker Service,"8321 Beechcraft Avenue, Gaithersburg, MD 20879",-77.169829435875,39.167950088781,4316.5
2024-02-03,2005.0,HYUN,SANTA FE,PRV PROP // MILLERS 301-602-0392 // TCL,22 N SUMMIT AVE,GAITHERSBURG,-77.193446,39.142887014,PVT,"Millers's Towing & Recovery, LLC","Millers's Towing & Recovery, LLC","18625 Mooney Drive, Gaithersburg, MD 20879",-77.165309428477,39.1625786911,5661.4
2021-12-18,2013.0,FORD,FUS,EXPIRED PLATES // SPEEDY // 301-588-1322 // TCL,14103 FALL ACRE CT,SILVER SPRING,-77.05712,39.10717,EXP,Speedy Towing,Speedy Towing,"15101 Southlawn Lane, Rockville, MD 20850",-77.133395924877,39.104344476742,9898.7
2024-04-05,2017.0,MERZ,E30,"HENRY'S  301 869 4800  TCL  //  UNAUTH PKG, MGMT REQ",14413 STEPPING STONE WAY,BURTONSVILLE,-76.929028973,39.092956017,PVT,Henry's Wrecker Service,Henry's Wrecker Service,"8321 Beechcraft Avenue, Gaithersburg, MD 20879",-77.169829435875,39.167950088781,31806.3
2023-11-19,2011.0,NISS,RGE,EXP PERMIT // AUTHORIZED 301-562-4020 // TCL,14120 WEEPING WILLOW DR,SILVER SPRING,-77.067597004,39.088272,NOP,Authorized Towing,Authorized Towing,"8011 Beechcraft Avenue, Gaithersburg, MD 20879",-77.16376838374,39.164402180848,13941.1
2022-08-22,2016.0,BMW,X3,HENRY'S 301 869 4800 // NO PERMIT,LOCBURY DR / CHURCHILL RIDGE CIR,GERMANTOWN,-77.26653,39.1873,NOP,Henry's Wrecker Service,Henry's Wrecker Service,"8321 Beechcraft Avenue, Gaithersburg, MD 20879",-77.169829435875,39.167950088781,12910.0
2024-05-18,2024.0,HOND,CIV,NOP  AUTHORIZED 301-562-4020  TCL,10914 GEORGIA AVE,SILVER SPRING,-77.05005301,39.03531698,NOP,Authorized Towing,Authorized Towing,"8011 Beechcraft Avenue, Gaithersburg, MD 20879",-77.16376838374,39.164402180848,21005.0
2023-09-08,2015.0,NISS,ALT,HENRYS TOWING 301-869-4800  BACK TO LOT  NO PERMIT,METZ DR / CLOPPER RD,GERMANTOWN,-77.275065782,39.158890993,NOP,Henry's Wrecker Service,Henry's Wrecker Service,"8321 Beechcraft Avenue, Gaithersburg, MD 20879",-77.169829435875,39.167950088781,11683.5
2024-01-12,2005.0,TOYT,COA,NOP / BIG TOW 301-424-4869 / TCL,19118 PARTRIDGE WOOD DR,GERMANTOWN,-77.257402016,39.167678002,NOP,Big Tow,Big Tow,"375 Derwood Circle, Rockville, MD 20850",-77.152902935128,39.105768671141,16041.4
2023-09-15,2015.0,TOYT,COA,REASON: EXPIRED TAGS//MILLERS//301-602-0392/TCL,13326 DOVEDALE WAY,GERMANTOWN,-77.278129038,39.158232016,EXP,"Millers's Towing & Recovery, LLC","Millers's Towing & Recovery, LLC","18625 Mooney Drive, Gaithersburg, MD 20879",-77.165309428477,39.1625786911,13215.2
2022-04-24,2018.0,MAZD,MZ6,NO TAGS // MILLERS // 301-602-0392 // TCL,13414 DAVENTRY WAY,GERMANTOWN,-77.27919,39.15793,NOP,"Millers's Towing & Recovery, LLC","Millers's Towing & Recovery, LLC","18625 Mooney Drive, Gaithersburg, MD 20879",-77.165309428477,39.1625786911,13239.6
2022-10-04,2018.0,TOYT,HGH,NOP / HENRYS / 301 869 4800 / TCL,8830 PINEY BRANCH RD,SILVER SPRING,-76.99305,38.99974,NOP,Henry's Wrecker Service,Henry's Wrecker Service,"8321 Beechcraft Avenue, Gaithersburg, MD 20879",-77.169829435875,39.167950088781,34436.6
2024-04-18,2023.0,JEEP,CHK,NO PERMIT // HENRYS 301 869 4800 // TCL,5105 RIVER RD,BETHESDA,-77.101787075,38.963584964,NOP,Henry's Wrecker Service,Henry's Wrecker Service,"8321 Beechcraft Avenue, Gaithersburg, MD 20879",-77.169829435875,39.167950088781,29149.7
2022-07-15,2021.0,NISS,KICKS,SPEEDY'S 301 588 1233 // WALK OFF,7980 GEORGIA AVE,SILVER SPRING,-77.02727,38.9862,WALK,Speedy Towing,Speedy Towing,"15101 Southlawn Lane, Rockville, MD 20850",-77.133395924877,39.104344476742,18646.1
2021-10-14,2007.0,HOND,ACC,SPEEDY (301) 588-1322 // TCL // NOP,14631 MONMOUTH DR,BURTONSVILLE,-76.93173,39.09643,NOP,Speedy Towing,Speedy Towing,"15101 Southlawn Lane, Rockville, MD 20850",-77.133395924877,39.104344476742,24172.1
2022-08-29,2021.0,VOLK,PAS,NO PERMIT // AUTH TOW // TCL // 301-562-4020,3609 PEAR TREE CT,SILVER SPRING,-77.07222,39.09142,NOP,Authorized Towing,Authorized Towing,"8011 Beechcraft Avenue, Gaithersburg, MD 20879",-77.16376838374,39.164402180848,13536.1
2024-01-13,2013.0,BUIC,ENC,NOP // HENRYS @ 301-869-4800 // TCL,11225 OAK LEAF DR,SILVER SPRING,-76.994359036,39.040621006,NOP,Henry's Wrecker Service,Henry's Wrecker Service,"8321 Beechcraft Avenue, Gaithersburg, MD 20879",-77.169829435875,39.167950088781,30446.0
2023-11-29,2017.0,NISS,RGE,NO PERMIT // HENRY'S // 301 869 4800 // TCL,915 SILVER SPRING AVE,SILVER SPRING,-77.025202008,38.99227201,NOP,Henry's Wrecker Service,Henry's Wrecker Service,"8321 Beechcraft Avenue, Gaithersburg, MD 20879",-77.169829435875,39.167950088781,31719.0
2022-02-16,2014.0,TOYT,COA,HENRYS 301 869 4800 //// NO PERMIT //// TCL,49 W DIAMOND AVE,GAITHERSBURG,-77.20141,39.14037,NOP,Henry's Wrecker Service,Henry's Wrecker Service,"8321 Beechcraft Avenue, Gaithersburg, MD 20879",-77.169829435875,39.167950088781,5904.6
2023-05-02,2003.0,TOYT,RAV,NOP// AUBURN 301-977-2740//TCL,12614 VEIRS MILL RD,ROCKVILLE,-77.09451,39.06292,NOP,"Auburn Towing, Inc.","Auburn Towing, Inc.","375 Derwood Circle, Rockville, MD 20850",-77.152902935128,39.105768671141,9450.2
2021-09-22,2008.0,SCIO,TC,NOP AUTH 301 562 4020 TCL,5405 TUCKERMAN LN,ROCKVILLE,-77.1083,39.02967,NOP,Authorized Towing,Authorized Towing,"8011 Beechcraft Avenue, Gaithersburg, MD 20879",-77.16376838374,39.164402180848,21314.4
2022-02-06,2020.0,NISS,ALT,AUBURN / 301-977-2740  NOP / TCL,345 WEST SIDE DR,GAITHERSBURG,-77.20638,39.1258,NOP,"Auburn Towing, Inc.","Auburn Towing, Inc.","375 Derwood Circle, Rockville, MD 20850",-77.152902935128,39.105768671141,8448.6
2022-06-05,2016.0,NISS,SEN,NOP // HENRYS // 301 927 0007 // TCL,1220 BLAIR MILL RD,SILVER SPRING,-77.02917,38.98996,NOP,Henry's Wrecker Service,Henry's Wrecker Service,"8321 Beechcraft Avenue, Gaithersburg, MD 20879",-77.169829435875,39.167950088781,32072.3
2023-06-07,2011.0,HOND,CRV,NOP AUTHORIZED 301-562-4020 TCL,9305 CORPORATE BLVD,ROCKVILLE,-77.19223699399998,39.107820987000025,NOP,Authorized Towing,Authorized Towing,"8011 Beechcraft Avenue, Gaithersburg, MD 20879",-77.16376838374,39.164402180848,9213.3
2022-07-08,2016.0,LNDR,DIS,NOP AUTHORIZED 301-562-4020 TCL,9901 GABLE RIDGE TER,ROCKVILLE,-77.20509,39.10838,NOP,Authorized Towing,Authorized Towing,"8011 Beechcraft Avenue, Gaithersburg, MD 20879",-77.16376838374,39.164402180848,11408.9
2021-07-16,2006.0,ACUR,TL,WALK OFF // MILLERS // 301 602 0392 // TCL,11301 FERN ST,SILVER SPRING,-77.04951,39.04035,PVT,"Millers's Towing & Recovery, LLC","Millers's Towing & Recovery, LLC","18625 Mooney Drive, Gaithersburg, MD 20879",-77.165309428477,39.1625786911,19874.7
2022-09-13,2020.0,MERZ,GL3,WALK OFF / AUTHORIZED TOW LOT (301) 562-4020,6930 WISCONSIN AVE,CHEVY CHASE,-77.09187,38.97862,PVT,Authorized Towing,Authorized Towing,"8011 Beechcraft Avenue, Gaithersburg, MD 20879",-77.16376838374,39.164402180848,26861.1
2024-03-22,2014.0,TOYT,COA,,KITCHEN HOUSE WAY / KITCHEN HOUSE CT,GERMANTOWN,-77.2650866,39.152112809,NOP,Henry's Wrecker Service,Henry's Wrecker Service,"8321 Beechcraft Avenue, Gaithersburg, MD 20879",-77.169829435875,39.167950088781,11561.1
2023-10-22,2018.0,NISS,ENVY200,NOP (CHANGED DATE ON PASS)  DIVERSIFIED 301-881-8035  TCL,1412 HAMPSHIRE WEST CT,SILVER SPRING,-76.983202974,39.008252988,NOP,Diversified Recovery,Diversified Recovery,"12527 Parklawn Drive, Rockville, MD 20852",-77.117447177077,39.061616842557,19683.6
2023-09-06,2014.0,CHEV,EXP,,20010 FREDERICK RD,GERMANTOWN,-77.240191036,39.183836006,NOP,Authorized Towing,Authorized Towing,"8011 Beechcraft Avenue, Gaithersburg, MD 20879",-77.16376838374,39.164402180848,11021.4
2022-07-28,2010.0,VOLK,CC,EXPIRED TAGS AND STORED VEHICLE  HENRYS@301-869-4800//TCL,11403 DECEMBER WAY,SILVER SPRING,-76.98014,39.0412,PKG,Henry's Wrecker Service,Henry's Wrecker Service,"8321 Beechcraft Avenue, Gaithersburg, MD 20879",-77.169829435875,39.167950088781,30853.9
2024-07-30,2020.0,TESL,,"AUBURN TOWING 301 977 2740, NOP, BACK TO THE LOT //",3 WHETSTONE DR,GAITHERSBURG,-77.204703985,39.148063007,NOP,"Auburn Towing, Inc.","Auburn Towing, Inc.","375 Derwood Circle, Rockville, MD 20850",-77.152902935128,39.105768671141,7067.6
2024-05-10,2019.0,MERZ,L55,HENRYS 3018694800 RESERVED SPACE TCL // NEG 10-60,800 ROCKWELL AVE,GAITHERSBURG,-77.199131026,39.112273999,PKG,Henry's Wrecker Service,Henry's Wrecker Service,"8321 Beechcraft Avenue, Gaithersburg, MD 20879",-77.169829435875,39.167950088781,11806.9
2021-12-12,2021.0,TOYT,CAM,AUTH / 301-562-4020  NOP / TCL,14120 WEEPING WILLOW DR,SILVER SPRING,-77.06679,39.0894,NOP,Authorized Towing,Authorized Towing,"8011 Beechcraft Avenue, Gaithersburg, MD 20879",-77.16376838374,39.164402180848,13797.5
2024-07-30,2021.0,HOND,ACC,INVALID TAGS  HENRYS@301-869-4800//TCL,108 SCHUYLER RD,SILVER SPRING,-77.012187008,39.002489005,PKG,Henry's Wrecker Service,Henry's Wrecker Service,"8321 Beechcraft Avenue, Gaithersburg, MD 20879",-77.169829435875,39.167950088781,33345.8
2021-07-19,2010.0,SUZI,KIZ,NOP // SPEEDY 301-588-1322 // TCL,18213 SWISS CIR,GERMANTOWN,-77.27536,39.15567,NOP,Speedy Towing,Speedy Towing,"15101 Southlawn Lane, Rockville, MD 20850",-77.133395924877,39.104344476742,17615.2
2023-06-01,2018.0,HOND,HRV,AUTHORIZED 301-562-4020  NOP  TCL,700 CLOPPER RD,GAITHERSBURG,-77.22533000499999,39.14360999600007,NOP,Authorized Towing,Authorized Towing,"8011 Beechcraft Avenue, Gaithersburg, MD 20879",-77.16376838374,39.164402180848,8014.8
2021-07-15,,CHRY,,PRIVATE PARKING  // HENRY'S TOWING // 301 869 4800 // TCL,11279 COLUMBIA PIKE,SILVER SPRING,-76.99739,39.03962,PVT,Henry's Wrecker Service,Henry's Wrecker Service,"8321 Beechcraft Avenue, Gaithersburg, MD 20879",-77.169829435875,39.167950088781,30495.6
2023-06-29,1991.0,TOYT,COA,NO PERMIT/HENRY 301 869 4800,12125 CLIFFTONDALE DR,SILVER SPRING,-76.973855978,39.053690992,NOP,Henry's Wrecker Service,Henry's Wrecker Service,"8321 Beechcraft Avenue, Gaithersburg, MD 20879",-77.169829435875,39.167950088781,32601.5
2024-02-15,2014.0,NISS,ALT,HENRYS 301-869-4800  PARKED IN FIRE LANE   TCL,BURLINGAME WAY / BATTLERIDGE PL,MONTGOMERY VILLAGE,-77.212314216,39.176338208,FIRE,Henry's Wrecker Service,Henry's Wrecker Service,"8321 Beechcraft Avenue, Gaithersburg, MD 20879",-77.169829435875,39.167950088781,4846.5
2024-05-16,2006.0,ACUR,ATL,NOP // AUTH 301-562-4020 // TCL,13831 CASTLE BLVD,SILVER SPRING,-76.942033999,39.082356011,NOP,Authorized Towing,Authorized Towing,"8011 Beechcraft Avenue, Gaithersburg, MD 20879",-77.16376838374,39.164402180848,29860.6
2024-02-24,2015.0,TOYT,RAV,NO OVERNIGHT PKG // HENRY'S // 301 927 0007 // TCL,11406 GEORGIA AVE,SILVER SPRING,-77.052504968,39.04193202,PKG,Henry's Wrecker Service,Henry's Wrecker Service,"8321 Beechcraft Avenue, Gaithersburg, MD 20879",-77.169829435875,39.167950088781,20225.8
2023-09-04,2015.0,NISS,VER,EXP- AUTHROIZED- 301-562-4020- TCL,13831 CASTLE BLVD,SILVER SPRING,-76.942033999,39.082356011,EXP,Authorized Towing,Authorized Towing,"8011 Beechcraft Avenue, Gaithersburg, MD 20879",-77.16376838374,39.164402180848,29860.6
2023-12-12,2018.0,MERC,,SPEEDY 301-588-1322  WALK OFF,8233 FENTON ST,SILVER SPRING,-77.023784964,38.992617009,PKG,Speedy Towing,Speedy Towing,"15101 Southlawn Lane, Rockville, MD 20850",-77.133395924877,39.104344476742,18191.5
2023-09-17,,NISS,RGE,NO PERMIT  HENRYS - 301-869-4800  BACK TO GAITHERSBURG LOT,70 UPPER ROCK CIR,ROCKVILLE,-77.183029976,39.112529018,NOP,Henry's Wrecker Service,Henry's Wrecker Service,"8321 Beechcraft Avenue, Gaithersburg, MD 20879",-77.169829435875,39.167950088781,9010.9
2024-06-23,2018.0,FORD,F350,NO OVERNIGHT PARKING HENRYS 301-869-4800 TCL,20101 SWALLOW POINT RD,MONTGOMERY VILLAGE,-77.199671011,39.187306068,PKG,Henry's Wrecker Service,Henry's Wrecker Service,"8321 Beechcraft Avenue, Gaithersburg, MD 20879",-77.169829435875,39.167950088781,4599.6
2023-04-02,2015.0,HOND,CIV,VIN IS COVERED    NOP // MILLERS TOWING @ 301-602-0392 // TCL,9312 PINEY BRANCH RD,SILVER SPRING,-76.98606,39.0013,NOP,"Millers's Towing & Recovery, LLC","Millers's Towing & Recovery, LLC","18625 Mooney Drive, Gaithersburg, MD 20879",-77.165309428477,39.1625786911,34128.1
2021-08-23,2014.0,CHEV,CTV,NOP  // AUBURN @ 301-977-2740 // TCL,2 WHETSTONE DR,GAITHERSBURG,-77.20528,39.14846,NOP,"Auburn Towing, Inc.","Auburn Towing, Inc.","375 Derwood Circle, Rockville, MD 20850",-77.152902935128,39.105768671141,7026.4
2022-09-17,2017.0,MAZD,CX30,MILLER TOWING AND RECOVERY 301-602-0392  BACK TO LOT  WALK OFF,11260 GEORGIA AVE,SILVER SPRING,-77.05144,39.0402,WALK,"Millers's Towing & Recovery, LLC","Millers's Towing & Recovery, LLC","18625 Mooney Drive, Gaithersburg, MD 20879",-77.165309428477,39.1625786911,19740.4
2021-12-06,1987.0,MERZ,420,"AUTHORIZED, 3015624020  TCL  NOP",11101 GEORGIA AVE,SILVER SPRING,-77.05006,39.03683,NOP,Authorized Towing,Authorized Towing,"8011 Beechcraft Avenue, Gaithersburg, MD 20879",-77.16376838374,39.164402180848,20265.8
2024-07-21,2010.0,TOYT,COA,NO PARKING PERMIT // SPEEDY 301 588 1322 // TCL,18211 CHALET DR,GERMANTOWN,-77.274274033,39.156183982,PKG,Speedy Towing,Speedy Towing,"15101 Southlawn Lane, Rockville, MD 20850",-77.133395924877,39.104344476742,17500.0
2022-12-06,2016.0,TOYT,COA,AUBURN // 301 977 2740 // EXP TAGS // TCL,9400 MERUST LN,GAITHERSBURG,-77.19409,39.17914,PKG,"Auburn Towing, Inc.","Auburn Towing, Inc.","375 Derwood Circle, Rockville, MD 20850",-77.152902935128,39.105768671141,10331.2
2024-01-05,2012.0,AUDI,A7,PRV PROP AUTHORIZED 301-562-4020 TCL,9700 SKYHILL WAY,ROCKVILLE,-77.201505032,39.108764999,PVT,Authorized Towing,Authorized Towing,"8011 Beechcraft Avenue, Gaithersburg, MD 20879",-77.16376838374,39.164402180848,11584.1
2022-08-30,2011.0,HOND,PLT,,2511 GLENALLAN AVE,SILVER SPRING,-77.05187,39.06379,FIRE,Henry's Wrecker Service,Henry's Wrecker Service,"8321 Beechcraft Avenue, Gaithersburg, MD 20879",-77.169829435875,39.167950088781,17401.0
2023-03-18,2005.0,TOYT,PRI,FIRE  AUTHORIZED 301 562 4020  TCL,10324 WATKINS MILL DR,MONTGOMERY VILLAGE,-77.21366,39.16825,FIRE,Authorized Towing,Authorized Towing,"8011 Beechcraft Avenue, Gaithersburg, MD 20879",-77.16376838374,39.164402180848,5424.1
2022-12-07,2020.0,TOYT,COA,NO PARKING ZONE // SPEEDY 301-588-1322 // TCL,8715 PINEY BRANCH RD,SILVER SPRING,-76.99653,38.99897,PKG,Speedy Towing,Speedy Towing,"15101 Southlawn Lane, Rockville, MD 20850",-77.133395924877,39.104344476742,21004.4
2022-06-02,2019.0,INFI,Q50,EXP VISITER PERM // DRIVE 301-585-8808 // TCL,1700 HAMPSHIRE GREEN LN,SILVER SPRING,-76.97602,39.0155,EXP,Drive Towing,Drive Towing,"14608 Old Gunpowder Rd, Laurel, MD 20707",-76.915644786956,39.088537803649,11167.8
2022-04-26,2016.0,ACUR,MDX,EXP VISITORS PASS // AUTHORIZED @ 301-562-4020 // TCL,12633 GREY EAGLE CT,GERMANTOWN,-77.26196,39.16716,EXP,Authorized Towing,Authorized Towing,"8011 Beechcraft Avenue, Gaithersburg, MD 20879",-77.16376838374,39.164402180848,13229.8
2022-07-23,2004.0,GMC,YUK,ABND VEH // MILLERS @ 301-602-0392 // TCL,13412 DAVENTRY WAY,GERMANTOWN,-77.27926,39.15745,ABN,"Millers's Towing & Recovery, LLC","Millers's Towing & Recovery, LLC","18625 Mooney Drive, Gaithersburg, MD 20879",-77.165309428477,39.1625786911,13195.1
2023-07-10,2020.0,HYUN,IONIQ,AUBURN TOWING 301-977-2740  NOP  TCL,18617 TURMERIC CT,GERMANTOWN,-77.266883961,39.162037987,NOP,"Auburn Towing, Inc.","Auburn Towing, Inc.","375 Derwood Circle, Rockville, MD 20850",-77.152902935128,39.105768671141,13414.4
2023-09-13,2007.0,MAZD,MX5,SPEEDY TOWING 301-588-1322  BACK TO LOT  NO PERMIT,1001 ROCKVILLE PIKE,ROCKVILLE,-77.135244998,39.071142994,NOP,Speedy Towing,Speedy Towing,"15101 Southlawn Lane, Rockville, MD 20850",-77.133395924877,39.104344476742,4617.4
2024-03-20,2021.0,LEXS,RX450,HENRYS 3018694800 NO PKG ZONE TCL // NEG 10-60,573 SHORTHORN WAY,ROCKVILLE,-77.184268989,39.110769992,PKG,Henry's Wrecker Service,Henry's Wrecker Service,"8321 Beechcraft Avenue, Gaithersburg, MD 20879",-77.169829435875,39.167950088781,9059.7
2024-05-16,2009.0,HOND,PLT,SPEEDY // 301 588 1322 // MAINTENANCE PKG // TCL,475 SOUTHAMPTON DR,SILVER SPRING,-76.984879767,39.006342636,PKG,Speedy Towing,Speedy Towing,"15101 Southlawn Lane, Rockville, MD 20850",-77.133395924877,39.104344476742,23674.4
2021-07-22,2020.0,HOND,CRV,HENRYS TOWING 301-869-4800  BACK TO LOT  INVALID PERMIT,12008 AMBER RIDGE CIR,GERMANTOWN,-77.24959,39.19664,INVALID PERMIT,Henry's Wrecker Service,Henry's Wrecker Service,"8321 Beechcraft Avenue, Gaithersburg, MD 20879",-77.169829435875,39.167950088781,10754.0
2023-10-18,2018.0,CHEV,IMP,"HENRYS (301) 869-4800, NOP, BACK TO THE LOT // 2018 BLK CHEV IMPALA, VA TVG1971",10132 LITTLE POND PL,MONTGOMERY VILLAGE,-77.208013999,39.168306016,NOP,Henry's Wrecker Service,Henry's Wrecker Service,"8321 Beechcraft Avenue, Gaithersburg, MD 20879",-77.169829435875,39.167950088781,4172.5
2023-07-19,,CHEV,SLV,NOP  BIGTOW 301 424 4869,19515 FREDERICK RD,GERMANTOWN,-77.237527015,39.17727,NOP,Big Tow,Big Tow,"375 Derwood Circle, Rockville, MD 20850",-77.152902935128,39.105768671141,11739.0
2022-12-09,2016.0,FORD,FUS,AUTHORIZED 3015624020 / TCL / NOP,9901 GABLE RIDGE TER,ROCKVILLE,-77.20509,39.10838,NOP,Authorized Towing,Authorized Towing,"8011 Beechcraft Avenue, Gaithersburg, MD 20879",-77.16376838374,39.164402180848,11408.9
2022-02-17,2010.0,NISS,MUR,AUTHORIZED 301-562-4020  NOP // TCL,3315 WEEPING WILLOW CT,SILVER SPRING,-77.06783,39.08922,NOP,Authorized Towing,Authorized Towing,"8011 Beechcraft Avenue, Gaithersburg, MD 20879",-77.16376838374,39.164402180848,13932.6
2023-09-25,2020.0,TOYT,CAM,REASON: EXP PERMIT/AUBURN///301-977-2740//TCL,429 W DIAMOND AVE,GAITHERSBURG,-77.209859023,39.137710016,NOP,"Auburn Towing, Inc.","Auburn Towing, Inc.","375 Derwood Circle, Rockville, MD 20850",-77.152902935128,39.105768671141,7323.8
2021-10-12,2013.0,NISS,ALT,NOP - TCL  AUTHROIZED (301) 562-4020,923 CLOPPER RD,GAITHERSBURG,-77.22733,39.14548,NOP,Authorized Towing,Authorized Towing,"8011 Beechcraft Avenue, Gaithersburg, MD 20879",-77.16376838374,39.164402180848,8225.1
2021-08-02,2001.0,BMW,X5,REASON : EXPIRED TAGS AND FLAT TIRE  TOW CO : MILLERS 301-602-0392  TCL,13414 DAVENTRY WAY,GERMANTOWN,-77.27919,39.15793,PKG,"Millers's Towing & Recovery, LLC","Millers's Towing & Recovery, LLC","18625 Mooney Drive, Gaithersburg, MD 20879",-77.165309428477,39.1625786911,13239.6
2023-05-16,2015.0,NISS,SEN,NOP // HENRYS 301-869-4800 // TCL,14201 ALTA OAKS DR,ROCKVILLE,-77.2068,39.08949,NOP,Henry's Wrecker Service,Henry's Wrecker Service,"8321 Beechcraft Avenue, Gaithersburg, MD 20879",-77.169829435875,39.167950088781,12156.8
2023-11-29,2017.0,TOYT,COA,NOP  HENRYS 301-869-4800  TCL,8616 2ND AVE,SILVER SPRING,-77.034340965,38.997343019,NOP,Henry's Wrecker Service,Henry's Wrecker Service,"8321 Beechcraft Avenue, Gaithersburg, MD 20879",-77.169829435875,39.167950088781,31203.2
2023-08-08,2004.0,HOND,CIV,NOP // HENRYS 301-869-4800 // TCL,2511 GLENALLAN AVE,SILVER SPRING,-77.052589961,39.064590986,NOP,Henry's Wrecker Service,Henry's Wrecker Service,"8321 Beechcraft Avenue, Gaithersburg, MD 20879",-77.169829435875,39.167950088781,17545.3
2023-01-18,2020.0,DODG,CHA,"NEG 10-60    TOWED TO 2701 GARFIELD AVE, SILVER SPRING",676 HOUSTON AVE,TAKOMA PARK,-77.00363,38.991,NOP,Henry's Wrecker Service,Henry's Wrecker Service,"8321 Beechcraft Avenue, Gaithersburg, MD 20879",-77.169829435875,39.167950088781,34115.4
2022-08-14,2015.0,NISS,NV2500,NOP. AUTHORIZED. 301-562-4020. TCL.,3607 PEAR TREE CT,SILVER SPRING,-77.07229,39.09116,NOP,Authorized Towing,Authorized Towing,"8011 Beechcraft Avenue, Gaithersburg, MD 20879",-77.16376838374,39.164402180848,13606.4
2023-01-15,2021.0,TOYT,YARIS,NO PERMIT // HENRYS // 301-869-4800 // TCL,198 HALPINE RD,ROCKVILLE,-77.12624,39.06067,NOP,Henry's Wrecker Service,Henry's Wrecker Service,"8321 Beechcraft Avenue, Gaithersburg, MD 20879",-77.169829435875,39.167950088781,14961.7
2021-07-29,2020.0,CHEV,IMP,NOP // AUTHORIZED: 301-562-4020 // TCL,19757 CRYSTAL ROCK DR,GERMANTOWN,-77.26139,39.17946,NOP,Authorized Towing,Authorized Towing,"8011 Beechcraft Avenue, Gaithersburg, MD 20879",-77.16376838374,39.164402180848,13107.9
2022-05-03,2019.0,KIA,SOR,EXP PERMIT// HENRYS 301-869-4800//TCL,10037 MAPLE LEAF DR,MONTGOMERY VILLAGE,-77.20539,39.18855,NOP,Henry's Wrecker Service,Henry's Wrecker Service,"8321 Beechcraft Avenue, Gaithersburg, MD 20879",-77.169829435875,39.167950088781,5519.5
2023-09-09,2012.0,MERZ,E350,EXP TAGS // MILLER'S // 301-602-0392 // TCL,13322 DOVEDALE WAY,GERMANTOWN,-77.278129038,39.158232016,EXP,"Millers's Towing & Recovery, LLC","Millers's Towing & Recovery, LLC","18625 Mooney Drive, Gaithersburg, MD 20879",-77.165309428477,39.1625786911,13215.2
2024-05-20,2020.0,TOYT,COA,REASON: NOP//HENRYS/301-869-4800/TCL,8257 FRONT LOOP,DERWOOD,-77.169157005,39.127664011,NOP,Henry's Wrecker Service,Henry's Wrecker Service,"8321 Beechcraft Avenue, Gaithersburg, MD 20879",-77.169829435875,39.167950088781,6757.0
2022-02-02,2014.0,HOND,CRV,DRIVE TOWING 301-585-8808  NOP  TCL,11700 OLD COLUMBIA PIKE,SILVER SPRING,-76.98028,39.04928,NOP,Drive Towing,Drive Towing,"14608 Old Gunpowder Rd, Laurel, MD 20707",-76.915644786956,39.088537803649,11126.4
2021-08-18,2021.0,KIA,FTE,NOP // AUTHO // 301 562 4020 // TCL,12633 GREY EAGLE CT,GERMANTOWN,-77.26196,39.16716,NOP,Authorized Towing,Authorized Towing,"8011 Beechcraft Avenue, Gaithersburg, MD 20879",-77.16376838374,39.164402180848,13229.8
2024-07-30,2023.0,CADI,CT5,NO PAYMENT FOR PARKING / HENRYS / 703-698-8900 / TCL,1010 RIPLEY ST,SILVER SPRING,-77.027635023,38.992273015,,Henry's Wrecker Service,Henry's Wrecker Service,"8321 Beechcraft Avenue, Gaithersburg, MD 20879",-77.169829435875,39.167950088781,31680.6
2022-10-22,2007.0,SATR,AURA,NO PERMIT .// AUTHORIZED @ 301-562-4020 // TCL,13927 CASTLE BLVD,SILVER SPRING,-76.94091,39.08407,NOP,Authorized Towing,Authorized Towing,"8011 Beechcraft Avenue, Gaithersburg, MD 20879",-77.16376838374,39.164402180848,30016.2
2022-09-01,2021.0,HYUND,,AUTHORIZED 301-562-4020  NOP / TCL,14120 WEEPING WILLOW DR,SILVER SPRING,-77.06679,39.0894,NOP,Authorized Towing,Authorized Towing,"8011 Beechcraft Avenue, Gaithersburg, MD 20879",-77.16376838374,39.164402180848,13797.5
2023-02-25,2012.0,FORD,FOC,NOP   AUTHORIZED 3015624020  TCL,3118 WHISPERING PINES DR,SILVER SPRING,-77.06434,39.08778,NOP,Authorized Towing,Authorized Towing,"8011 Beechcraft Avenue, Gaithersburg, MD 20879",-77.16376838374,39.164402180848,14122.3
2021-08-11,2020.0,MASE,GHIHILL,REASON: EXPIRED PERMIT//HENRYS//301-869-4800/TCL,12400 PARK POTOMAC AVE,POTOMAC,-77.1575,39.05846,NOP,Henry's Wrecker Service,Henry's Wrecker Service,"8321 Beechcraft Avenue, Gaithersburg, MD 20879",-77.169829435875,39.167950088781,16852.2
2024-07-30,2024.0,CHEV,MAL,NO PERMIT / HENRYS 301-869-4800 / TCL,915 SILVER SPRING AVE,SILVER SPRING,-77.025202008,38.99227201,NOP,Henry's Wrecker Service,Henry's Wrecker Service,"8321 Beechcraft Avenue, Gaithersburg, MD 20879",-77.169829435875,39.167950088781,31719.0
2023-10-12,2015.0,MERZ,ML250,NOT PAYING TO PARK HERNYS  301-869-4800 TCL,8621 GEORGIA AVE,SILVER SPRING,-77.028789966,38.997295997,UNPAID,Henry's Wrecker Service,Henry's Wrecker Service,"8321 Beechcraft Avenue, Gaithersburg, MD 20879",-77.169829435875,39.167950088781,31042.9
2023-09-25,2009.0,ACUR,CL,PARKING IN RESERVED SPACE // AUBURN TOWING 301-977-2740 //TCL,77 S WASHINGTON ST,ROCKVILLE,-77.153364996,39.083609986,PKG,"Auburn Towing, Inc.","Auburn Towing, Inc.","375 Derwood Circle, Rockville, MD 20850",-77.152902935128,39.105768671141,3277.7
2024-03-15,2016.0,CHEV,EQX,"NOP// HENRY'S, 301-869-4800, TCL",5901 MONTROSE RD,ROCKVILLE,-77.118849995,39.053527,NOP,Henry's Wrecker Service,Henry's Wrecker Service,"8321 Beechcraft Avenue, Gaithersburg, MD 20879",-77.169829435875,39.167950088781,19105.9
2022-07-13,2022.0,GENESIS,G70,NOP  AUTHORIZED 301-562-4020  TCL,22551 CABIN BRANCH AVE,CLARKSBURG,-77.28681,39.22318,NOP,Authorized Towing,Authorized Towing,"8011 Beechcraft Avenue, Gaithersburg, MD 20879",-77.16376838374,39.164402180848,17516.7
2023-11-18,2023.0,HYUN,,INVALID PERMIT DISPLAYED // HENRY'S 301-869-4800 // TCL,11215 GEORGIA AVE,SILVER SPRING,-77.04999199,39.03921599,PKG,Henry's Wrecker Service,Henry's Wrecker Service,"8321 Beechcraft Avenue, Gaithersburg, MD 20879",-77.169829435875,39.167950088781,20778.9
2022-10-17,2013.0,HOND,CIC,PKG- AUBURN-  301-977-2740-TCL,18702 CURRY POWDER LN,GERMANTOWN,-77.26439,39.16213,PKG,"Auburn Towing, Inc.","Auburn Towing, Inc.","375 Derwood Circle, Rockville, MD 20850",-77.152902935128,39.105768671141,12962.0
2023-11-10,2017.0,MERZ,CCLASS,2 SPACES // SPEEDY // 301-588-1322 // TCL,14103 FALL ACRE CT,SILVER SPRING,-77.057047038,39.107006015,PKG,Speedy Towing,Speedy Towing,"15101 Southlawn Lane, Rockville, MD 20850",-77.133395924877,39.104344476742,9907.9
2022-03-15,2010.0,NISS,RGE,AUTHORIZED TOWING 301-562-4020  NOP  TCL,13 WELBECK CT,MONTGOMERY VILLAGE,-77.1834,39.18682,NOP,Authorized Towing,Authorized Towing,"8011 Beechcraft Avenue, Gaithersburg, MD 20879",-77.16376838374,39.164402180848,3737.8
2022-07-01,2005.0,MERZ,S50,AUTHORIZED 301-562-4020 // NOP // TCL,971 CLOPPER RD,GAITHERSBURG,-77.22782,39.14576,NOP,Authorized Towing,Authorized Towing,"8011 Beechcraft Avenue, Gaithersburg, MD 20879",-77.16376838374,39.164402180848,8277.8
2022-02-07,,AUDI,Q5,NO PERMIT  AUTHORIZED - 301-562-4020  BACK TO LOT,20613 DUBOIS CT,MONTGOMERY VILLAGE,-77.18761,39.19469,NOP,Authorized Towing,Authorized Towing,"8011 Beechcraft Avenue, Gaithersburg, MD 20879",-77.16376838374,39.164402180848,5543.2
2021-10-20,2018.0,CHEV,TRK,NOP// HENRYS // 301-927-0007 // TCL,8806 LANIER DR,SILVER SPRING,-77.04783,38.99922,NOP,Henry's Wrecker Service,Henry's Wrecker Service,"8321 Beechcraft Avenue, Gaithersburg, MD 20879",-77.169829435875,39.167950088781,30082.8
2021-12-01,2018.0,ACUR,RLX,HENRYS TOWING 301-869-4800  BACK TO LOT  PARKED IN RESERVED SPOT # 221,7111 WOODMONT AVE,CHEVY CHASE,-77.09316,38.97992,,Henry's Wrecker Service,Henry's Wrecker Service,"8321 Beechcraft Avenue, Gaithersburg, MD 20879",-77.169829435875,39.167950088781,26903.7
2023-04-15,2023.0,KIA,STINGER,NO PERMIT / HENRYS 301-869-4800 / TCL,70 UPPER ROCK CIR,ROCKVILLE,-77.157,39.104,NOP,Henry's Wrecker Service,Henry's Wrecker Service,"8321 Beechcraft Avenue, Gaithersburg, MD 20879",-77.169829435875,39.167950088781,9138.8
2023-03-28,2021.0,MERZ,C30,HENRYS 301-869-4800 // UNAUTH PKG IN SPC 310 // TCL,70 UPPER ROCK CIR,ROCKVILLE,-77.157,39.104,PVT,Henry's Wrecker Service,Henry's Wrecker Service,"8321 Beechcraft Avenue, Gaithersburg, MD 20879",-77.169829435875,39.167950088781,9138.8
2022-03-30,2014.0,TOYT,COA,NOP // PER MGR'S REQ   HENRYS // 301-869-4800 // TCL,9404 COLLETTE WAY,MONTGOMERY VILLAGE,-77.19403,39.15501,NOP,Henry's Wrecker Service,Henry's Wrecker Service,"8321 Beechcraft Avenue, Gaithersburg, MD 20879",-77.169829435875,39.167950088781,4211.6
2024-07-06,2010.0,FORD,F35,NOP// SPEEDY 301-588-1322// TCL,475 SOUTHAMPTON DR,SILVER SPRING,-76.984879767,39.006342636,NOP,Speedy Towing,Speedy Towing,"15101 Southlawn Lane, Rockville, MD 20850",-77.133395924877,39.104344476742,23674.4
2024-04-07,2021.0,NISS,SEN,WALK OFF // HENRY'S // 301 927 0007 // TCL,909 THAYER AVE,SILVER SPRING,-77.02460396,38.993378002,PKG,Henry's Wrecker Service,Henry's Wrecker Service,"8321 Beechcraft Avenue, Gaithersburg, MD 20879",-77.169829435875,39.167950088781,31739.0
2021-07-22,2021.0,NISS,RGE,AUTHORIZED 3015624020  NOP TCL,38 N SUMMIT DR,GAITHERSBURG,-77.19126,39.14497,NOP,Authorized Towing,Authorized Towing,"8011 Beechcraft Avenue, Gaithersburg, MD 20879",-77.16376838374,39.164402180848,5754.2
2022-08-26,2015.0,HOND,CRV,HENRYS // 301 869 4800 // NOP // TCL,20811 SHAMROCK GLEN CIR,GERMANTOWN,-77.26953,39.19761,NOP,Henry's Wrecker Service,Henry's Wrecker Service,"8321 Beechcraft Avenue, Gaithersburg, MD 20879",-77.169829435875,39.167950088781,13005.5
2023-11-06,2016.0,FORD,FIE,NO PARKING PERMIT // BIGTOW 301-424-4869 // TCL,18900 EBBTIDE CIR,GERMANTOWN,-77.251496966,39.167151996,NOP,Big Tow,Big Tow,"375 Derwood Circle, Rockville, MD 20850",-77.152902935128,39.105768671141,12998.4
2022-12-06,2006.0,SUZI,GSX,UNAUTHORIZED PARKING// HENRYS// 301-869-4800// TLC,9838 MAHOGANY DR,GAITHERSBURG,-77.20246,39.11592,PKG,Henry's Wrecker Service,Henry's Wrecker Service,"8321 Beechcraft Avenue, Gaithersburg, MD 20879",-77.169829435875,39.167950088781,11148.9
2022-02-24,2004.0,TOYT,CAM,NOP // AUTH 3015624020 TCL //,8601 WELBECK WAY,MONTGOMERY VILLAGE,-77.18197,39.18656,NOP,Authorized Towing,Authorized Towing,"8011 Beechcraft Avenue, Gaithersburg, MD 20879",-77.16376838374,39.164402180848,3705.8
2022-05-31,2021.0,HOND,ACC,HANDICAPPED PARKING W/O PERMIT OR TAG // AUTHORIZED@ 301-562-4020 // TCL,8021 GEORGIA AVE,SILVER SPRING,-77.02665,38.98763,PKG,Authorized Towing,Authorized Towing,"8011 Beechcraft Avenue, Gaithersburg, MD 20879",-77.16376838374,39.164402180848,31576.3
2022-03-22,1999.0,CHEV,SUB,NO OVERNIGHT PKG // HENRYS 301 869 4800 // TCL,19142 MONTGOMERY VILLAGE AVE,MONTGOMERY VILLAGE,-77.20481,39.17076,PKG,Henry's Wrecker Service,Henry's Wrecker Service,"8321 Beechcraft Avenue, Gaithersburg, MD 20879",-77.169829435875,39.167950088781,3709.2
2023-11-18,2017.0,HYUN,SON,NOP // AUTHORIZED 301-562-4020 // TCL,12633 GREY EAGLE CT,GERMANTOWN,-77.261843283,39.167140729,NOP,Authorized Towing,Authorized Towing,"8011 Beechcraft Avenue, Gaithersburg, MD 20879",-77.16376838374,39.164402180848,13237.8
2024-03-20,2013.0,CHEV,EQX,NO PERMIT // HENRY'S // 301 869 4800 // TCL,BLACK FOREST WAY / WHEATFIELD TER,GAITHERSBURG,-77.230387162,39.169853744,NOP,Henry's Wrecker Service,Henry's Wrecker Service,"8321 Beechcraft Avenue, Gaithersburg, MD 20879",-77.169829435875,39.167950088781,9644.3
2023-10-22,2019.0,TOYT,CHR,DIVERSFD 3018818035  NOP   TCL,7579 SPRING LAKE DR,BETHESDA,-77.15356505,39.028021519,NOP,Diversified Recovery,Diversified Recovery,"12527 Parklawn Drive, Rockville, MD 20852",-77.117447177077,39.061616842557,7536.3
2021-12-12,2008.0,SUBA,IMP,EXP PERMIT // AUTH 301 562 4020 //TCL,14120 WEEPING WILLOW DR,SILVER SPRING,-77.06679,39.0894,EXP,Authorized Towing,Authorized Towing,"8011 Beechcraft Avenue, Gaithersburg, MD 20879",-77.16376838374,39.164402180848,13797.5
2024-06-19,2018.0,ACUR,RDX,SPEEDY 3015881322 EXP PERMIT,475 SOUTHAMPTON DR,SILVER SPRING,-76.984879767,39.006342636,EXP,Speedy Towing,Speedy Towing,"15101 Southlawn Lane, Rockville, MD 20850",-77.133395924877,39.104344476742,23674.4
2023-06-29,2007.0,INFI,Q37,PARKED IN FIRE LANE/HENRYS 301  869 4800,3777 STEPPING STONE LN,BURTONSVILLE,-76.929058981,39.092308012,PKG,Henry's Wrecker Service,Henry's Wrecker Service,"8321 Beechcraft Avenue, Gaithersburg, MD 20879",-77.169829435875,39.167950088781,31737.2
2024-03-08,2017.0,GMC,TRN,SPEEDY // 301 588 1322  // NOP // TCL,1001 ROCKVILLE PIKE,ROCKVILLE,-77.135244998,39.071142994,NOP,Speedy Towing,Speedy Towing,"15101 Southlawn Lane, Rockville, MD 20850",-77.133395924877,39.104344476742,4617.4
2022-04-28,2022.0,TOYT,CAM,NO PERMIT // HENRY'S // 301 869 4800 // TCL,15250 SIESTA KEY WAY,ROCKVILLE,-77.19426,39.10599,NOP,Henry's Wrecker Service,Henry's Wrecker Service,"8321 Beechcraft Avenue, Gaithersburg, MD 20879",-77.169829435875,39.167950088781,9932.8
2022-05-11,2016.0,TOYT,CAM,EXP PERM // AUTHORIZED 301-562-4020 // TCL,11901 PARKLAWN PL,ROCKVILLE,-77.10226,39.05101,EXP,Authorized Towing,Authorized Towing,"8011 Beechcraft Avenue, Gaithersburg, MD 20879",-77.16376838374,39.164402180848,18423.6
2022-06-01,2017.0,NISS,ALT,NOP // HENRYS @ 301-869-4800 // TCL,12956 PINNACLE DR,GERMANTOWN,-77.26568,39.18376,NOP,Henry's Wrecker Service,Henry's Wrecker Service,"8321 Beechcraft Avenue, Gaithersburg, MD 20879",-77.169829435875,39.167950088781,13402.2
2023-10-21,2017.0,HYUN,ELN,DIVERSIFY TOWING 301-881-8035  BACK TO LOT  NO PERMIT,2020 BALTIMORE RD,ROCKVILLE,-77.121889022,39.086759989,NOP,Diversified Recovery,Diversified Recovery,"12527 Parklawn Drive, Rockville, MD 20852",-77.117447177077,39.061616842557,3400.4
2022-07-01,2015.0,TOYT,HGH,EXP PERMIT // AUTHORIZED 301 562 4020 // TCL,13214 TWINBROOK PKWY,ROCKVILLE,-77.11243,39.07286,NOP,Authorized Towing,Authorized Towing,"8011 Beechcraft Avenue, Gaithersburg, MD 20879",-77.16376838374,39.164402180848,15018.4
2023-03-01,2010.0,NISS,ALT,NOP// HENRYS // 301 869 4800 TCL,7105 CLARENDON RD,BETHESDA,-77.10066,38.98127,NOP,Henry's Wrecker Service,Henry's Wrecker Service,"8321 Beechcraft Avenue, Gaithersburg, MD 20879",-77.169829435875,39.167950088781,26955.5
2021-07-17,2006.0,HOND,ACC,NOP // DRIVE TOWING  301-585-8808 TCL,11700 OLD COLUMBIA PIKE,SILVER SPRING,-76.98028,39.04928,NOP,Drive Towing,Drive Towing,"14608 Old Gunpowder Rd, Laurel, MD 20707",-76.915644786956,39.088537803649,11126.4
2022-05-24,2021.0,NISS,VRS,,720 CLOPPER RD,GAITHERSBURG,-77.22573,39.14463,NOP,Authorized Towing,Authorized Towing,"8011 Beechcraft Avenue, Gaithersburg, MD 20879",-77.16376838374,39.164402180848,8057.6
2021-08-04,2006.0,BMW,X3,SPEEDY 3015881322 TCL,9272 BROADWATER DR,GAITHERSBURG,-77.191,39.17012,NOP,Speedy Towing,Speedy Towing,"15101 Southlawn Lane, Rockville, MD 20850",-77.133395924877,39.104344476742,12033.9
2021-07-24,2019.0,NISS,VRS,REASON: NOP//AUTHORIZED/301-562-4020?TCL,11225 OAK LEAF DR,SILVER SPRING,-76.99446,39.04085,NOP,Authorized Towing,Authorized Towing,"8011 Beechcraft Avenue, Gaithersburg, MD 20879",-77.16376838374,39.164402180848,29906.0
2022-11-09,2001.0,TOYT,COA,NOP  HENRYS 3018694800,11225 OAK LEAF DR,SILVER SPRING,-76.99446,39.04085,NOP,Henry's Wrecker Service,Henry's Wrecker Service,"8321 Beechcraft Avenue, Gaithersburg, MD 20879",-77.169829435875,39.167950088781,30446.0
2024-04-01,2018.0,HOND,CRV,NOP // HENRY'S 301-869-4800 // TCL,10401 MOTOR CITY DR,BETHESDA,-77.14294101,39.027237999,NOP,Henry's Wrecker Service,Henry's Wrecker Service,"8321 Beechcraft Avenue, Gaithersburg, MD 20879",-77.169829435875,39.167950088781,21578.0
2022-03-07,2016.0,CHEV,IMP,NOP // HENRYS // 301 869 4800 // TCL,3744 BEL PRE RD,SILVER SPRING,-77.0746,39.09138,NOP,Henry's Wrecker Service,Henry's Wrecker Service,"8321 Beechcraft Avenue, Gaithersburg, MD 20879",-77.169829435875,39.167950088781,13588.5
2023-11-30,2019.0,HYUN,SFE,NOP // HENRYS 301-869-4800 // TCL,60 UPPER ROCK CIR,ROCKVILLE,-77.184557997,39.111499008,NOP,Henry's Wrecker Service,Henry's Wrecker Service,"8321 Beechcraft Avenue, Gaithersburg, MD 20879",-77.169829435875,39.167950088781,8895.8
2023-02-18,2018.0,JEEP,REG,TCL / FIRELANE / HENRYS 3018694800,16202 COLUMBUS AVE,DERWOOD,-77.16726,39.12609,FIRE,Henry's Wrecker Service,Henry's Wrecker Service,"8321 Beechcraft Avenue, Gaithersburg, MD 20879",-77.169829435875,39.167950088781,6482.7
2023-04-14,2021.0,JEEP,CHK,AUTHORIZED 301-562-4020 // NOP // TCL,11600 LOCKWOOD DR,SILVER SPRING,-76.98288,39.04145,NOP,Authorized Towing,Authorized Towing,"8011 Beechcraft Avenue, Gaithersburg, MD 20879",-77.16376838374,39.164402180848,30036.8
2024-04-13,2005.0,HOND,ACC,"HENRYS (301) 869-4800, PKG, BACK TO THE LOT //",11201 GEORGIA AVE,SILVER SPRING,-77.04999199,39.03921599,PKG,Henry's Wrecker Service,Henry's Wrecker Service,"8321 Beechcraft Avenue, Gaithersburg, MD 20879",-77.169829435875,39.167950088781,20778.9
2022-12-19,2013.0,HYUN,ACC,AUTHORIZED 3015624020 NOP TCL,9901 GABLE RIDGE TER,ROCKVILLE,-77.20509,39.10838,NOP,Authorized Towing,Authorized Towing,"8011 Beechcraft Avenue, Gaithersburg, MD 20879",-77.16376838374,39.164402180848,11408.9
2022-10-02,,DODG,JNY,EXPIRED PERMIT  AUTHORIZED - 301-562-4020  BACK TO LOT,877 CLOPPER RD,GAITHERSBURG,-77.22292,39.14333,NOP,Authorized Towing,Authorized Towing,"8011 Beechcraft Avenue, Gaithersburg, MD 20879",-77.16376838374,39.164402180848,7928.9
2022-04-24,2014.0,MAZD,MZ3,NOP// AUTHIORIZED 301-562-4020//TCL,19757 CRYSTAL ROCK DR,GERMANTOWN,-77.26139,39.17946,NOP,Authorized Towing,Authorized Towing,"8011 Beechcraft Avenue, Gaithersburg, MD 20879",-77.16376838374,39.164402180848,13107.9
2024-06-19,2018.0,ACUR,MDX,AUTHORIZED 3015624020 NOP,12633 GREY EAGLE CT,GERMANTOWN,-77.261928112,39.167211659,NOP,Authorized Towing,Authorized Towing,"8011 Beechcraft Avenue, Gaithersburg, MD 20879",-77.16376838374,39.164402180848,13227.0
2022-11-08,2022.0,NISS,SEN,HENRYS / 301-869-4800  INVALID PERMIT / TCL,19550 WATERS RD,GERMANTOWN,-77.27313,39.17653,NOP,Henry's Wrecker Service,Henry's Wrecker Service,"8321 Beechcraft Avenue, Gaithersburg, MD 20879",-77.169829435875,39.167950088781,12661.9
2023-12-19,2016.0,HOND,CIV,REASON: RESERVED SPACE//AUTHORIZED/301-562-4020/TCL    OWNER NOTIF,11101 GEORGIA AVE,SILVER SPRING,-77.049585971,39.037215984,PKG,Authorized Towing,Authorized Towing,"8011 Beechcraft Avenue, Gaithersburg, MD 20879",-77.16376838374,39.164402180848,20500.3
2023-02-23,2010.0,HOND,CIV,INVALID PERMIT // HENRYS 301 869 4800 // TCL,9873 LAKE SHORE DR,MONTGOMERY VILLAGE,-77.20079,39.16158,NOP,Henry's Wrecker Service,Henry's Wrecker Service,"8321 Beechcraft Avenue, Gaithersburg, MD 20879",-77.169829435875,39.167950088781,4213.2
2024-01-22,2006.0,HOND,CIV,NOP / AUBURN / 301 977 2740 / TCL,120 DUVALL LN,GAITHERSBURG,-77.202282034,39.12823,NOP,"Auburn Towing, Inc.","Auburn Towing, Inc.","375 Derwood Circle, Rockville, MD 20850",-77.152902935128,39.105768671141,6166.4
2022-07-03,2018.0,TOYT,CAM,NOP// AUTHORIZED 301-562-4020//TCL,893 CLOPPER RD,GAITHERSBURG,-77.22329,39.14528,NOP,Authorized Towing,Authorized Towing,"8011 Beechcraft Avenue, Gaithersburg, MD 20879",-77.16376838374,39.164402180848,7753.4
2022-07-21,2022.0,VOLV,XC6,HENRYS 301-927-0007 // NOP // TCL,1804 EAST WEST HWY,SILVER SPRING,-77.03887,38.99565,NOP,Henry's Wrecker Service,Henry's Wrecker Service,"8321 Beechcraft Avenue, Gaithersburg, MD 20879",-77.169829435875,39.167950088781,31462.3
2023-12-09,2021.0,HOND,PAS,NO OVERNIGHT PRKG  HNERYS@301-869-4800//TCL,192 HALPINE RD,ROCKVILLE,-77.125440015,39.06074801,PKG,Henry's Wrecker Service,Henry's Wrecker Service,"8321 Beechcraft Avenue, Gaithersburg, MD 20879",-77.169829435875,39.167950088781,14917.6
2021-12-01,2018.0,HOND,CIV,NOP // HENRYS // 301 927 0007 // TCL,11215 GEORGIA AVE,SILVER SPRING,-77.05059,39.03977,NOP,Henry's Wrecker Service,Henry's Wrecker Service,"8321 Beechcraft Avenue, Gaithersburg, MD 20879",-77.169829435875,39.167950088781,20617.8
2021-12-08,2013.0,HOND,ACC,AUBURN (301) 977-2740 // WALK OFF // TCL,10400 OLD GEORGETOWN RD,BETHESDA,-77.12594,39.02564,PKG,"Auburn Towing, Inc.","Auburn Towing, Inc.","375 Derwood Circle, Rockville, MD 20850",-77.152902935128,39.105768671141,12644.5
2024-05-12,2018.0,TOYT,HGH,NOP// AUTHORIZED  TCL,19757 CRYSTAL ROCK DR,GERMANTOWN,-77.261135987,39.179386012,NOP,Authorized Towing,Authorized Towing,"8011 Beechcraft Avenue, Gaithersburg, MD 20879",-77.16376838374,39.164402180848,13230.6
2022-07-16,2013.0,TOYT,CAM,EXP PERMIT // MILLERS 301 602 0392 // TCL,3213 HEWITT AVE,SILVER SPRING,-77.06594,39.08042,NOP,"Millers's Towing & Recovery, LLC","Millers's Towing & Recovery, LLC","18625 Mooney Drive, Gaithersburg, MD 20879",-77.165309428477,39.1625786911,14757.9
2024-05-08,2015.0,BMW,320I,NOP // HENRY'S 301 869 4800 // TCL,6 BRASSIE CT,MONTGOMERY VILLAGE,-77.20129297,39.175276993,NOP,Henry's Wrecker Service,Henry's Wrecker Service,"8321 Beechcraft Avenue, Gaithersburg, MD 20879",-77.169829435875,39.167950088781,3537.7
2023-11-11,2017.0,AUDI,Q5,NO PERMIT  HENRYS@301-562-4020//TCL,11817 ASHBROOK CT,GERMANTOWN,-77.242690016,39.17424099,NOP,Henry's Wrecker Service,Henry's Wrecker Service,"8321 Beechcraft Avenue, Gaithersburg, MD 20879",-77.169829435875,39.167950088781,9432.9
2022-09-25,1992.0,FORD,F35,DIVERSIFIED.301-881-8035.NO PERMIT. TCL,2020 BALTIMORE RD,ROCKVILLE,-77.11948,39.08691,NOP,Diversified Recovery,Diversified Recovery,"12527 Parklawn Drive, Rockville, MD 20852",-77.117447177077,39.061616842557,3576.0
2024-04-27,2021.0,HYUN,SFE,NOP AUTHORIZED 301-562-4020 TCL,14120 WEEPING WILLOW DR,SILVER SPRING,-77.067597004,39.088272,NOP,Authorized Towing,Authorized Towing,"8011 Beechcraft Avenue, Gaithersburg, MD 20879",-77.16376838374,39.164402180848,13941.1
2021-12-23,2004.0,TOYT,CAM,AUTHORIZED 301 562 4020 VISITOR PERMIT NOT DISPLAYED TCL,8021 GEORGIA AVE,SILVER SPRING,-77.02665,38.98763,NOP,Authorized Towing,Authorized Towing,"8011 Beechcraft Avenue, Gaithersburg, MD 20879",-77.16376838374,39.164402180848,31576.3
2024-07-30,,SUBA,WRX,HENRYS 301-869-4800 DOUBLE PARKED,1502 NOVEMBER CIR,SILVER SPRING,-76.980442981,39.045386998,PKG,Henry's Wrecker Service,Henry's Wrecker Service,"8321 Beechcraft Avenue, Gaithersburg, MD 20879",-77.169829435875,39.167950088781,30767.4
2023-10-04,2015.0,DODG,RAM,WALK OFF  MILLERS TOWING @ 301-602-0392// TCL,200 N WASHINGTON ST,ROCKVILLE,-77.153160981,39.086051005,PKG,"Millers's Towing & Recovery, LLC","Millers's Towing & Recovery, LLC","18625 Mooney Drive, Gaithersburg, MD 20879",-77.165309428477,39.1625786911,10367.4
2024-03-20,1992.0,CADI,ELD,NOP   SPEEDY 301-5881322  TCL,14103 FALL ACRE CT,SILVER SPRING,-77.057047038,39.107006015,NOP,Speedy Towing,Speedy Towing,"15101 Southlawn Lane, Rockville, MD 20850",-77.133395924877,39.104344476742,9907.9
2022-06-02,2013.0,KIA,SOL,HENRYS 301-869-4800  MANAGEMENT REQUEST,5400 WESTBARD AVE,BETHESDA,-77.10785,38.96441,ABN,Henry's Wrecker Service,Henry's Wrecker Service,"8321 Beechcraft Avenue, Gaithersburg, MD 20879",-77.169829435875,39.167950088781,29010.2
2024-02-04,2013.0,HOND,CIV,SPEEDY TOWING 301-588-1322,14103 FALL ACRE CT,SILVER SPRING,-77.057047038,39.107006015,PKG,Speedy Towing,Speedy Towing,"15101 Southlawn Lane, Rockville, MD 20850",-77.133395924877,39.104344476742,9907.9
2023-10-30,2020.0,HOND,CRV,NOT PARKED IN A MARKED PLACE  AUTHORIZED 301 562 4020  TCL,11613 LOCKWOOD DR,SILVER SPRING,-76.984712974,39.040645021,PKG,Authorized Towing,Authorized Towing,"8011 Beechcraft Avenue, Gaithersburg, MD 20879",-77.16376838374,39.164402180848,29957.7
2022-04-07,2021.0,VOLK,TGN,NOP // HENRYS 301-869-4800 // TCL,70 UPPER ROCK CIR,ROCKVILLE,-77.157,39.104,NOP,Henry's Wrecker Service,Henry's Wrecker Service,"8321 Beechcraft Avenue, Gaithersburg, MD 20879",-77.169829435875,39.167950088781,9138.8
2023-05-24,2021.0,TOYT,VNZ,HENRYS 301 869 4800  NOP TCL,1131 UNIVERSITY BLVD W,SILVER SPRING,-77.02922196899993,39.03758902100003,NOP,Henry's Wrecker Service,Henry's Wrecker Service,"8321 Beechcraft Avenue, Gaithersburg, MD 20879",-77.169829435875,39.167950088781,22844.4
2023-11-07,2018.0,FORD,FOC,EXP // AUTH 301-562-4020 // TCL,14200 GRAND PRE RD,SILVER SPRING,-77.075930041,39.088915982,EXP,Authorized Towing,Authorized Towing,"8011 Beechcraft Avenue, Gaithersburg, MD 20879",-77.16376838374,39.164402180848,13273.4
2024-07-19,2010.0,HYUN,ELN,HENRYS 301-869-4800 // BLOCKING CROSSWALK/PARKED IN UNMARKED SPC // TCL,20100 CLUB HILL DR,GERMANTOWN,-77.270524976,39.185250997,PKG,Henry's Wrecker Service,Henry's Wrecker Service,"8321 Beechcraft Avenue, Gaithersburg, MD 20879",-77.169829435875,39.167950088781,13276.2
2021-07-11,2010.0,LINC,MKX,NOP / HENRYS 301-869-4800 / TCL,10106 LITTLE POND PL,MONTGOMERY VILLAGE,-77.20818,39.1668,NOP,Henry's Wrecker Service,Henry's Wrecker Service,"8321 Beechcraft Avenue, Gaithersburg, MD 20879",-77.169829435875,39.167950088781,4354.7
2022-08-21,2008.0,DODG,DAK,NOP HENRYS 3018694800 TCL,5230 TUCKERMAN LN,ROCKVILLE,-77.10135,39.02738,NOP,Henry's Wrecker Service,Henry's Wrecker Service,"8321 Beechcraft Avenue, Gaithersburg, MD 20879",-77.169829435875,39.167950088781,22756.4
2022-02-17,2008.0,CHRY,SEB,NOP // SPEEDY 401 588 1322 // TCL,20732 CRYSTAL HILL CIR,GERMANTOWN,-77.27575,39.19634,NOP,Speedy Towing,Speedy Towing,"15101 Southlawn Lane, Rockville, MD 20850",-77.133395924877,39.104344476742,20404.2
2021-08-10,2021.0,NISS,VRS,EXP PERMIT // AUTHORIZED @ 301-562-4020 // TCL,9305 CORPORATE BLVD,ROCKVILLE,-77.1924,39.10747,EXP,Authorized Towing,Authorized Towing,"8011 Beechcraft Avenue, Gaithersburg, MD 20879",-77.16376838374,39.164402180848,9027.5
2024-06-02,2016.0,TOYT,HGH,NOP // HENRY'S // 301-869-4800 // TCL,9906 SHELBURNE TER,GAITHERSBURG,-77.201981962,39.116778015,NOP,Henry's Wrecker Service,Henry's Wrecker Service,"8321 Beechcraft Avenue, Gaithersburg, MD 20879",-77.169829435875,39.167950088781,11233.3
2023-09-29,2010.0,TOYT,COA,NOP  SPEEDY 301-588-1322  TCL,11497 COLUMBIA PIKE,SILVER SPRING,-76.988105968,39.044584012,NOP,Speedy Towing,Speedy Towing,"15101 Southlawn Lane, Rockville, MD 20850",-77.133395924877,39.104344476742,22859.4
2023-08-04,2022.0,FORD,BRO,PARKED ON THE GRASS - MANAGEMENT REQUEST   HENRYS 301 869 4800 // TCL,19500 TURTLE DOVE TER,GAITHERSBURG,-77.189168966,39.176376992,PKG,Henry's Wrecker Service,Henry's Wrecker Service,"8321 Beechcraft Avenue, Gaithersburg, MD 20879",-77.169829435875,39.167950088781,2925.1
2021-10-06,2018.0,KIA,SOL,NOP - TCL  HENRYS (301) 869-4800,15251 SIESTA KEY WAY,ROCKVILLE,-77.19424,39.10602,NOP,Henry's Wrecker Service,Henry's Wrecker Service,"8321 Beechcraft Avenue, Gaithersburg, MD 20879",-77.169829435875,39.167950088781,9929.1
2023-02-12,2010.0,TOYT,PRI,NO PERMIT // HENRYS // 301-869-4800 // TCL    ***OWNER NOTIF***,15251 SIESTA KEY WAY,ROCKVILLE,-77.19424,39.10602,NOP,Henry's Wrecker Service,Henry's Wrecker Service,"8321 Beechcraft Avenue, Gaithersburg, MD 20879",-77.169829435875,39.167950088781,9929.1
2022-10-19,2007.0,FORD,E250,NO PERMIT // MILLERS @ 301-602-0392 // TCL,9316 PINEY BRANCH RD,SILVER SPRING,-76.98586,39.00138,NOP,"Millers's Towing & Recovery, LLC","Millers's Towing & Recovery, LLC","18625 Mooney Drive, Gaithersburg, MD 20879",-77.165309428477,39.1625786911,34154.3
2022-09-23,2018.0,HOND,ACC,NO PKG ZONE // HENRY' S  301-869-4800 // TCL,9709 KEY WEST AVE,ROCKVILLE,-77.20576,39.1036,PKG,Henry's Wrecker Service,Henry's Wrecker Service,"8321 Beechcraft Avenue, Gaithersburg, MD 20879",-77.169829435875,39.167950088781,12260.0
2022-08-04,2008.0,TOYT,COA,NOP  SPEEDY 301 588 1322,18336 STREAMSIDE DR,GAITHERSBURG,-77.16811,39.15666,NOP,Speedy Towing,Speedy Towing,"15101 Southlawn Lane, Rockville, MD 20850",-77.133395924877,39.104344476742,9907.8
2023-12-27,2023.0,NISS,RGE,NOP // AUTHORIZED // 301-562-4020 // TCL,9305 CORPORATE BLVD,ROCKVILLE,-77.192236994,39.107820987,NOP,Authorized Towing,Authorized Towing,"8011 Beechcraft Avenue, Gaithersburg, MD 20879",-77.16376838374,39.164402180848,9213.3
2021-10-09,2014.0,CHEV,CAM,NOP// HERNYS 301-869--4800/TCL,19457 BREEZEDALE LN,GERMANTOWN,-77.24311,39.1752,NOP,Henry's Wrecker Service,Henry's Wrecker Service,"8321 Beechcraft Avenue, Gaithersburg, MD 20879",-77.169829435875,39.167950088781,9416.5
2023-06-07,2015.0,NISS,NV,COMMERCIAL VEH ON PRV PROP // HENRY'S 301 869 4800 TCL,13008 THUNDERHEAD DR,GERMANTOWN,-77.270045028,39.187979013,PVT,Henry's Wrecker Service,Henry's Wrecker Service,"8321 Beechcraft Avenue, Gaithersburg, MD 20879",-77.169829435875,39.167950088781,12800.1
2024-03-07,2012.0,VOLK,TGN,TCL / PKG/ SPEEDY /3015881322,14424 PARKVALE RD,ROCKVILLE,-77.11316103,39.092234,PKG,Speedy Towing,Speedy Towing,"15101 Southlawn Lane, Rockville, MD 20850",-77.133395924877,39.104344476742,3886.8
2021-08-17,2011.0,CHEV,MAL,NOP // BIG TOW 301-424-4869 // TCL  OWNER NOTIFIED,7202 MILLCREST TER,DERWOOD,-77.1465,39.14556,NOP,Big Tow,Big Tow,"375 Derwood Circle, Rockville, MD 20850",-77.152902935128,39.105768671141,5682.0
2023-05-17,2013.0,TOYT,HGH,NOP HENRYS 3018694800 TCL,11215 GEORGIA AVE,SILVER SPRING,-77.05059,39.03977,NOP,Henry's Wrecker Service,Henry's Wrecker Service,"8321 Beechcraft Avenue, Gaithersburg, MD 20879",-77.169829435875,39.167950088781,20617.8
2022-09-10,2020.0,BMW,X4,"**** UNABLE TO PROVIDE VIN, COVERED ****    PKG  MILLERS TOWING 301-602-0392  TCL",2526 UNIVERSITY BLVD W,SILVER SPRING,-77.05251,39.04084,PKG,"Millers's Towing & Recovery, LLC","Millers's Towing & Recovery, LLC","18625 Mooney Drive, Gaithersburg, MD 20879",-77.165309428477,39.1625786911,19554.5
2023-06-13,2015.0,MERZ,560,NO PERMIT // HENRY'S // 301 927 0007 // TCL,2511 GLENALLAN AVE,SILVER SPRING,-77.05258996099997,39.06459098600004,NOP,Henry's Wrecker Service,Henry's Wrecker Service,"8321 Beechcraft Avenue, Gaithersburg, MD 20879",-77.169829435875,39.167950088781,17545.3
2023-06-21,2014.0,KIA,SOL,SPEEDY // 301 588 1322 // NOP // TCL,3330 TEAGARDEN CIR,SILVER SPRING,-76.944609004,39.08109202,NOP,Speedy Towing,Speedy Towing,"15101 Southlawn Lane, Rockville, MD 20850",-77.133395924877,39.104344476742,22781.0
2023-07-23,2009.0,TOYT,PRI,NOP HENRYS 3018694800  TCL,18914 SMOOTHSTONE WAY,MONTGOMERY VILLAGE,-77.208013999,39.168306016,NOP,Henry's Wrecker Service,Henry's Wrecker Service,"8321 Beechcraft Avenue, Gaithersburg, MD 20879",-77.169829435875,39.167950088781,4172.5
2024-01-02,2013.0,FORD,ECP,,25 GOODPORT LN,GAITHERSBURG,-77.236767028,39.151667016,NOP,"Millers's Towing & Recovery, LLC","Millers's Towing & Recovery, LLC","18625 Mooney Drive, Gaithersburg, MD 20879",-77.165309428477,39.1625786911,9509.3
2022-12-06,2021.0,GMC,TRN,EXPIRED PERMIT  AUTHORIZED@301-562-4020//TCL,13831 CASTLE BLVD,SILVER SPRING,-76.94276,39.0822,NOP,Authorized Towing,Authorized Towing,"8011 Beechcraft Avenue, Gaithersburg, MD 20879",-77.16376838374,39.164402180848,29755.2
2021-07-07,1997.0,TOYT,AVA,DUPLICATE PERMIT // TCL // SPEEDY 301-588-1322,19852 WHEELWRIGHT DR,MONTGOMERY VILLAGE,-77.2125,39.1821,NOP,Speedy Towing,Speedy Towing,"15101 Southlawn Lane, Rockville, MD 20850",-77.133395924877,39.104344476742,14519.5
2023-10-26,2012.0,VOLK,TIG,NOP // MILLER 301-585-8808 // TCL,475 SOUTHAMPTON DR,SILVER SPRING,-76.984190952,39.006229352,NOP,Drive Towing,Drive Towing,"14608 Old Gunpowder Rd, Laurel, MD 20707",-76.915644786956,39.088537803649,12472.5
2023-11-13,2012.0,NISS,RGE,REASON: EXPIRED PERMIT//AUTHORIZED/301-562-4020/TCL,14120 WEEPING WILLOW DR,SILVER SPRING,-77.067597004,39.088272,NOP,Authorized Towing,Authorized Towing,"8011 Beechcraft Avenue, Gaithersburg, MD 20879",-77.16376838374,39.164402180848,13941.1
2024-07-29,2018.0,TOYT,RAV,NO PERMIT  AUBURN @301-977-2740//TCL,18705 PAPRIKA CT,GERMANTOWN,-77.266569974,39.163108985,NOP,"Auburn Towing, Inc.","Auburn Towing, Inc.","375 Derwood Circle, Rockville, MD 20850",-77.152902935128,39.105768671141,13393.1
2023-09-19,2006.0,NISS,VRS,"WALK OFF, PARKED IN RESERVED // AUBURN // 301-977-2740 // TCL",430 ALLIED PL,GAITHERSBURG,-77.191282966,39.151409985,PKG,"Auburn Towing, Inc.","Auburn Towing, Inc.","375 Derwood Circle, Rockville, MD 20850",-77.152902935128,39.105768671141,7062.6
2024-01-14,2019.0,FORD,EDG,MILLERS 301-602-0392  NOP   TCL,10 HONEY BROOK LN,GAITHERSBURG,-77.237706975,39.153018011,NOP,"Millers's Towing & Recovery, LLC","Millers's Towing & Recovery, LLC","18625 Mooney Drive, Gaithersburg, MD 20879",-77.165309428477,39.1625786911,9513.2
